[
  {
    "idx": 1,
    "name": "서울 숭례문",
    "region": "서울",
    "address": "서울 중구 세종대로 40",
    "latitude": 37.559722,
    "longitude": 126.975278,
    "desc": "조선시대 한양도성의 정문으로, 남쪽에 있다고 하여 남대문이라고도 불린다. 1398년에 처음 지었고, 1447년에 고쳐 지은 것이 지금의 모습으로 이어졌으나 2008년 화재로 크게 훼손되어 2013년에 복원되었다."
  },
  {
    "idx": 2,
    "name": "서울 원각사지 십층석탑",
    "region": "서울",
    "address": "서울 종로구 종로 99",
    "latitude": 37.571667,
    "longitude": 126.988333,
    "desc": "조선 세조 13년(1467)에 세워진 석탑이다. 대리석으로 만들어졌으며, 형태와 장식이 매우 화려하고 정교하여 조선시대 석탑의 백미로 꼽힌다."
  },
  {
    "idx": 3,
    "name": "서울 북한산 신라 진흥왕 순수비",
    "region": "서울",
    "address": "서울 용산구 서빙고로 137 국립중앙박물관",
    "latitude": 37.524167,
    "longitude": 126.980278,
    "desc": "신라 진흥왕이 영토를 확장하고, 그 지역을 순시한 것을 기념하여 세운 비석이다. 원래 북한산 비봉에 있었으나, 보존을 위해 국립중앙박물관으로 옮겨졌다."
  },
  {
    "idx": 4,
    "name": "여주 고달사지 승탑",
    "region": "경기",
    "address": "경기 여주시 북내면 상교리 411-1",
    "latitude": 37.393889,
    "longitude": 127.652222,
    "desc": "고려시대의 승려의 사리를 모신 탑으로, 전체적인 조형미와 조각 수법이 뛰어나 고려시대 승탑의 대표작으로 꼽힌다."
  },
  {
    "idx": 5,
    "name": "보은 법주사 쌍사자 석등",
    "region": "충북",
    "address": "충북 보은군 속리산면 법주사로 379",
    "latitude": 36.5425,
    "longitude": 127.833333,
    "desc": "통일신라시대의 석등으로, 두 마리의 사자가 서로 마주보며 앞발로 불을 밝히는 화사석을 받치고 있는 독특한 형태를 하고 있다. 신라 석등의 대표작 중 하나이다."
  },
  {
    "idx": 6,
    "name": "충주 탑평리 칠층석탑",
    "region": "충북",
    "address": "충북 충주시 중앙탑면 중앙탑길 225",
    "latitude": 37.015833,
    "longitude": 127.866667,
    "desc": "통일신라시대의 석탑으로, 높이가 14.5m에 달하는 거대한 탑이다. ‘중앙탑’이라고도 불리며, 우리나라 중앙에 위치한다는 상징적인 의미를 가지고 있다."
  },
  {
    "idx": 7,
    "name": "천안 봉선홍경사 갈기비",
    "region": "충남",
    "address": "충남 천안시 서북구 성환읍 대홍3길 77-48",
    "latitude": 36.943056,
    "longitude": 127.134722,
    "desc": "고려 현종 12년(1021)에 세워진 비석으로, 봉선홍경사의 창건 내력을 기록하고 있다. 비문은 최충이 짓고, 백현례가 썼다."
  },
  {
    "idx": 8,
    "name": "보령 성주사지 대낭혜화상탑비",
    "region": "충남",
    "address": "충남 보령시 성주면 성주리 78",
    "latitude": 36.344722,
    "longitude": 126.655556,
    "desc": "통일신라 말기의 승려인 낭혜화상의 행적을 기록한 탑비로, 최치원이 비문을 지었다. 통일신라시대 탑비의 대표적인 작품이다."
  },
  {
    "idx": 9,
    "name": "부여 정림사지 오층석탑",
    "region": "충남",
    "address": "충남 부여군 부여읍 동남리 254",
    "latitude": 36.279444,
    "longitude": 126.913333,
    "desc": "백제시대의 대표적인 석탑으로, 목탑의 구조를 석재로 충실하게 재현하였다. 세련되고 정제된 조형미를 보여주며, 익산 미륵사지 석탑과 함께 백제 석탑의 양식을 잘 보여준다."
  },
  {
    "idx": 10,
    "name": "남원 실상사 백장암 삼층석탑",
    "region": "전북",
    "address": "전북 남원시 산내면 대정리 975",
    "latitude": 35.443056,
    "longitude": 127.62,
    "desc": "통일신라시대의 석탑으로, 기단과 탑신에 화려하고 정교한 조각이 가득 새겨져 있다. 일반적인 석탑의 형식을 따르지 않은 독특한 작품이다."
  }
]
