[
  {
    "idx": 1,
    "name": "서울 숭례문",
    "region": "서울",
    "address": "서울 중구 세종대로 40",
    "latitude": 37.559722,
    "longitude": 126.975278,
    "desc": "조선시대 한양도성의 정문으로, 남쪽에 있다고 하여 남대문이라고도 불린다. 1398년에 처음 지었고, 1447년에 고쳐 지은 것이 지금의 모습으로 이어졌으나 2008년 화재로 크게 훼손되어 2013년에 복원되었다."
  },
  {
    "idx": 2,
    "name": "서울 원각사지 십층석탑",
    "region": "서울",
    "address": "서울 종로구 종로 99",
    "latitude": 37.571667,
    "longitude": 126.988333,
    "desc": "조선 세조 13년(1467)에 세워진 석탑이다. 대리석으로 만들어졌으며, 형태와 장식이 매우 화려하고 정교하여 조선시대 석탑의 백미로 꼽힌다."
  },
  {
    "idx": 3,
    "name": "서울 북한산 신라 진흥왕 순수비",
    "region": "서울",
    "address": "서울 용산구 서빙고로 137 국립중앙박물관",
    "latitude": 37.524167,
    "longitude": 126.980278,
    "desc": "신라 진흥왕이 영토를 확장하고, 그 지역을 순시한 것을 기념하여 세운 비석이다. 원래 북한산 비봉에 있었으나, 보존을 위해 국립중앙박물관으로 옮겨졌다."
  },
  {
    "idx": 4,
    "name": "여주 고달사지 승탑",
    "region": "경기",
    "address": "경기 여주시 북내면 상교리 411-1",
    "latitude": 37.393889,
    "longitude": 127.652222,
    "desc": "고려시대의 승려의 사리를 모신 탑으로, 전체적인 조형미와 조각 수법이 뛰어나 고려시대 승탑의 대표작으로 꼽힌다."
  },
  {
    "idx": 5,
    "name": "보은 법주사 쌍사자 석등",
    "region": "충북",
    "address": "충북 보은군 속리산면 법주사로 379",
    "latitude": 36.5425,
    "longitude": 127.833333,
    "desc": "통일신라시대의 석등으로, 두 마리의 사자가 서로 마주보며 앞발로 불을 밝히는 화사석을 받치고 있는 독특한 형태를 하고 있다. 신라 석등의 대표작 중 하나이다."
  },
  {
    "idx": 6,
    "name": "충주 탑평리 칠층석탑",
    "region": "충북",
    "address": "충북 충주시 중앙탑면 중앙탑길 225",
    "latitude": 37.015833,
    "longitude": 127.866667,
    "desc": "통일신라시대의 석탑으로, 높이가 14.5m에 달하는 거대한 탑이다. ‘중앙탑’이라고도 불리며, 우리나라 중앙에 위치한다는 상징적인 의미를 가지고 있다."
  },
  {
    "idx": 7,
    "name": "천안 봉선홍경사 갈기비",
    "region": "충남",
    "address": "충남 천안시 서북구 성환읍 대홍3길 77-48",
    "latitude": 36.943056,
    "longitude": 127.134722,
    "desc": "고려 현종 12년(1021)에 세워진 비석으로, 봉선홍경사의 창건 내력을 기록하고 있다. 비문은 최충이 짓고, 백현례가 썼다."
  },
  {
    "idx": 8,
    "name": "보령 성주사지 대낭혜화상탑비",
    "region": "충남",
    "address": "충남 보령시 성주면 성주리 78",
    "latitude": 36.344722,
    "longitude": 126.655556,
    "desc": "통일신라 말기의 승려인 낭혜화상의 행적을 기록한 탑비로, 최치원이 비문을 지었다. 통일신라시대 탑비의 대표적인 작품이다."
  },
  {
    "idx": 9,
    "name": "부여 정림사지 오층석탑",
    "region": "충남",
    "address": "충남 부여군 부여읍 동남리 254",
    "latitude": 36.279444,
    "longitude": 126.913333,
    "desc": "백제시대의 대표적인 석탑으로, 목탑의 구조를 석재로 충실하게 재현하였다. 세련되고 정제된 조형미를 보여주며, 익산 미륵사지 석탑과 함께 백제 석탑의 양식을 잘 보여준다."
  },
  {
    "idx": 10,
    "name": "남원 실상사 백장암 삼층석탑",
    "region": "전북",
    "address": "전북 남원시 산내면 대정리 975",
    "latitude": 35.443056,
    "longitude": 127.62,
    "desc": "통일신라시대의 석탑으로, 기단과 탑신에 화려하고 정교한 조각이 가득 새겨져 있다. 일반적인 석탑의 형식을 따르지 않은 독특한 작품이다."
  },
  {
    "idx": 11,
    "name": "익산 미륵사지 석탑",
    "region": "전북",
    "address": "전북특별자치도 익산시 금마면 기양리 97",
    "latitude": 36.0125,
    "longitude": 127.030278,
    "desc": "백제 무왕 40년(639년)에 건립된 한국에서 가장 오래되고 큰 석탑입니다. 목탑의 구조를 석재로 충실히 재현하여 목탑에서 석탑으로 넘어가는 과도기적 양식을 보여주는 중요한 문화재입니다. 원래 9층으로 추정되나 현재는 6층까지 복원되어 있습니다."
  },
  {
    "idx": 12,
    "name": "구례 화엄사 각황전 앞 석등",
    "region": "전남",
    "address": "전라남도 구례군 마산면 화엄사로 539, 화엄사",
    "latitude": 35.25694,
    "longitude": 127.49750,
    "desc": "통일신라시대(860~873년 추정)에 만들어진 높이 6.4m의 거대한 석등으로, 한국에 현존하는 석등 중 가장 큽니다. 8각의 화사석과 장고 모양의 간주석, 연꽃 조각 등이 특징이며 웅장한 각황전과 조화를 이룹니다."
  },
  {
    "idx": 13,
    "name": "강진 무위사 극락보전",
    "region": "전남",
    "address": "전라남도 강진군 성전면 무위사로 308, 무위사",
    "latitude": 34.738778,
    "longitude": 126.686778,
    "desc": "조선 성종 7년(1476년)에 지어진 것으로 추정되는 목조건물입니다. 주심포 양식으로 간결하면서도 균형 잡힌 구조미를 보여주며, 내부에는 아미타삼존불과 벽화(국보 제313호 등)가 봉안되어 있습니다."
  },
  {
    "idx": 14,
    "name": "영천 거조사 영산전",
    "region": "경북",
    "address": "경상북도 영천시 청통면 거조길 400-67, 거조사",
    "latitude": 36.020239,
    "longitude": 128.764497,
    "desc": "고려 우왕 원년(1375년)에 건립된 목조건물입니다. 소박하고 간결한 주심포 양식으로 지어졌으며, 내부에는 526구의 각기 다른 표정을 한 석조 나한상이 모셔져 있는 것으로 유명합니다."
  },
  {
    "idx": 15,
    "name": "안동 봉정사 극락전",
    "region": "경북",
    "address": "경상북도 안동시 서후면 봉정사길 222, 봉정사",
    "latitude": 36.633000,
    "longitude": 128.642000,
    "desc": "고려시대(1200년대 초 추정)에 지어진 목조건물로, 한국에 현존하는 가장 오래된 목조건물 중 하나로 알려져 있습니다. 주심포 양식의 맞배지붕 건물로, 통일신라 건축 양식을 계승한 모습을 보여줍니다."
  },
  {
    "idx": 16,
    "name": "안동 법흥사지 칠층전탑",
    "region": "경북",
    "address": "경상북도 안동시 법흥동 8-1",
    "latitude": 36.565972,
    "longitude": 128.746381,
    "desc": "통일신라시대에 조성된 것으로 추정되는 높이 17m의 칠층전탑입니다. 국내에 남아있는 전탑 중 가장 크고 오래된 것 중 하나로, 기단에는 8부중상과 사천왕상이 조각되어 있습니다."
  },
  {
    "idx": 17,
    "name": "영주 부석사 무량수전 앞 석등",
    "region": "경북",
    "address": "경상북도 영주시 부석면 부석사로 345, 부석사",
    "latitude": 36.99889,
    "longitude": 128.68750,
    "desc": "통일신라시대에 만들어진 높이 2.97m의 화강암 석등입니다. 8각을 기본 형태로 하며, 비례와 조각이 정교하여 신라 석등 중 최고의 걸작으로 꼽힙니다. 화사석 각 면에는 보살상이 조각되어 있습니다."
  },
  {
    "idx": 18,
    "name": "영주 부석사 무량수전",
    "region": "경북",
    "address": "경상북도 영주시 부석면 부석사로 345, 부석사",
    "latitude": 36.99889,
    "longitude": 128.68750,
    "desc": "고려시대(1376년 중수 기록)의 목조건물로, 한국에서 가장 오래된 목조건축물 중 하나입니다. 주심포 양식으로 지어졌으며, 배흘림기둥, 안쏠림 등 고려시대 건축의 특징을 잘 보여주는 아름다운 건물입니다."
  },
  {
    "idx": 19,
    "name": "영주 부석사 조사당",
    "region": "경북",
    "address": "경상북도 영주시 부석면 부석사로 345, 부석사",
    "latitude": 36.99889,
    "longitude": 128.68750,
    "desc": "고려 우왕 3년(1377년)에 건립된 것으로 추정되는 목조건물입니다. 부석사를 창건한 의상대사의 초상을 모시고 있으며, 간결한 주심포 양식으로 고려시대 건축 연구에 중요한 자료입니다. 내부 벽화(국보 제46호)가 유명합니다."
  },
  {
    "idx": 20,
    "name": "경주 불국사 다보탑",
    "region": "경북",
    "address": "경상북도 경주시 불국로 385, 불국사",
    "latitude": 35.79000,
    "longitude": 129.33222,
    "desc": "통일신라 경덕왕 10년(751년)경에 건립된 높이 10.29m의 석탑입니다. 일반적인 석탑과 다른 독특하고 복잡한 구조를 화강암으로 아름답게 표현하였으며, 석가탑과 함께 불국사 대웅전 앞뜰에 서 있습니다. 한국 10원 동전의 도안으로도 유명합니다."
  },
  {
    "idx": 21,
    "name": "경주 불국사 삼층석탑",
    "region": "경북",
    "address": "경상북도 경주시 불국로 385, 불국사",
    "latitude": 35.79000,
    "longitude": 129.332222,
    "desc": "통일신라 경덕왕 10년(751년)경 건립된 높이 10.75m의 삼층석탑으로, '석가탑'이라고도 불립니다. 간결하고 균형 잡힌 아름다움을 지닌 신라 석탑의 전형으로, 다보탑과 함께 불국사를 대표하는 탑입니다. 1966년 해체 수리 중 세계 최고(最古)의 목판 인쇄물인 '무구정광대다라니경'(국보 제126호)이 발견되었습니다."
  },
  {
    "idx": 22,
    "name": "경주 불국사 연화교 및 칠보교",
    "region": "경북",
    "address": "경상북도 경주시 불국로 385, 불국사",
    "latitude": 35.790414,
    "longitude": 129.331725,
    "desc": "통일신라시대(751년경)에 만들어진 석조 계단 다리입니다. 불국사 극락전으로 향하는 안양문과 연결되며, 아래쪽 10단이 연화교, 위쪽 8단이 칠보교입니다. 연화교 계단에는 연꽃잎이 정교하게 조각되어 있습니다."
  },
  {
    "idx": 23,
    "name": "경주 불국사 청운교 및 백운교",
    "region": "경북",
    "address": "경상북도 경주시 불국로 385, 불국사",
    "latitude": 35.789761,
    "longitude": 129.331622,
    "desc": "통일신라시대(751년경)에 만들어진 석조 계단 다리입니다. 불국사 대웅전으로 향하는 자하문과 연결되며, 아래쪽 18단이 백운교, 위쪽 16단이 청운교입니다. 다리 아래는 무지개 모양의 홍예로 만들어져 한국 석교 및 성문 건축의 초기 형태를 보여줍니다."
  },
  {
    "idx": 24,
    "name": "경주 석굴암 석굴",
    "region": "경북",
    "address": "경상북도 경주시 불국로 873-243, 석굴암",
    "latitude": 35.794167,
    "longitude": 129.349444,
    "desc": "통일신라 경덕왕 10년(751년) 김대성에 의해 창건된 인공 석굴사원입니다. 화강암을 다듬어 조립한 돔형 구조로, 내부에는 본존불인 석가여래좌상을 중심으로 십대제자, 보살상, 천왕상 등이 정교하게 조각되어 있어 신라 불교미술의 정수를 보여줍니다. 유네스코 세계문화유산으로 지정되어 있습니다."
  },
  {
    "idx": 25,
    "name": "경주 성덕대왕신종",
    "region": "경북",
    "address": "경상북도 경주시 일정로 186, 국립경주박물관",
    "latitude": 35.829389,
    "longitude": 129.22675,
    "desc": "통일신라 혜공왕 7년(771년)에 완성된 높이 3.75m의 거대한 동종으로, '에밀레종'이라고도 불립니다. 한국에 현존하는 가장 큰 종 중 하나이며, 아름다운 비천상 조각과 1,000여 자의 명문, 그리고 신비로운 종소리로 유명합니다. 국립경주박물관에 소장되어 있습니다."
  },
  {
    "idx": 26,
    "name": "경주 불국사 금동비로자나불좌상",
    "region": "경북",
    "address": "경상북도 경주시 진현동 15, 불국사 비로전",
    "latitude": 35.790000,
    "longitude": 129.332222,
    "desc": "통일신라시대(8~9세기)에 제작된 높이 1.77m의 금동불상입니다. 불국사 비로전에 봉안되어 있으며, 지권인을 한 비로자나불을 형상화했습니다. 당당한 체구와 정교한 옷주름 표현 등 통일신라 불교조각의 높은 수준을 보여주는 걸작으로, 국보 제27호 아미타여래좌상, 국보 제28호 백률사 약사여래입상과 함께 신라 3대 금동불로 꼽힙니다."
  },
  {
    "idx": 27,
    "name": "경주 불국사 금동아미타여래좌상",
    "region": "경북",
    "address": "경상북도 경주시 진현동 15, 불국사 극락전",
    "latitude": 35.790000,
    "longitude": 129.332222,
    "desc": "통일신라시대(8~9세기)에 제작된 높이 1.66m의 금동불상입니다. 불국사 극락전에 봉안되어 있으며, 아미타불을 형상화했습니다. 근엄하면서도 자비로운 표정과 사실적인 옷주름 표현이 뛰어나며, 국보 제26호 비로자나불좌상, 국보 제28호 백률사 약사여래입상과 함께 신라 3대 금동불로 불립니다."
  },
  {
    "idx": 28,
    "name": "경주 백률사 금동약사여래입상",
    "region": "경북",
    "address": "경상북도 경주시 일정로 186, 국립경주박물관",
    "latitude": 35.829389,
    "longitude": 129.22675,
    "desc": "통일신라시대(8세기 말~9세기 초)에 제작된 높이 1.77m의 금동불상입니다. 원래 경주 백률사에 있었으나 현재 국립경주박물관에 소장되어 있습니다. 약사여래를 형상화한 입상으로, 신체의 비례와 조형기법이 우수하여 국보 제26호, 제27호 불상과 함께 신라 3대 금동불로 꼽힙니다."
  },
  {
    "idx": 29,
    "name": "성덕대왕신종",
    "region": "경북",
    "address": "경상북도 경주시 일정로 186, 국립경주박물관",
    "latitude": 35.829389,
    "longitude": 129.22675,
    "desc": "통일신라 혜공왕 7년(771년)에 완성된 높이 3.75m의 거대한 동종으로, '에밀레종' 또는 '봉덕사종'이라고도 불립니다. 한국에 현존하는 가장 큰 종 중 하나이며, 아름다운 비천상 조각과 1,000여 자의 명문, 그리고 신비로운 종소리로 유명합니다. 국립경주박물관에 소장되어 있습니다. (국보 제25호와 동일 유물, 명칭 혼용)"
  },
  {
    "idx": 30,
    "name": "경주 분황사 모전석탑",
    "region": "경북",
    "address": "경상북도 경주시 분황로 94-11, 분황사",
    "latitude": 35.840278,
    "longitude": 129.233611,
    "desc": "신라 선덕여왕 3년(634년)에 건립된 것으로 추정되는 모전석탑입니다. 돌을 벽돌 모양으로 다듬어 쌓았으며, 현재는 3층만 남아있으나 원래는 더 높은 층이었을 것으로 보입니다. 1층 감실 입구 양쪽에는 인왕상이 조각되어 있습니다. 현존하는 신라 석탑 중 가장 오래된 것입니다."
  },
  {
    "idx": 31,
    "name": "경주 첨성대",
    "region": "경북",
    "address": "경상북도 경주시 인왕동 839-1",
    "latitude": 35.834722,
    "longitude": 129.219167,
    "desc": "신라 선덕여왕(재위 632~647) 때 건립된 천문관측대로, 현존하는 동양 최고(最古)의 천문대입니다. 높이 약 9.4m의 원통형 석조 건축물로, 362개의 화강암을 사용하여 27단을 쌓았으며, 꼭대기에는 우물 정(井)자 모양의 정상부가 있습니다. 천체의 움직임을 관찰하여 국가의 길흉을 점치는 역할을 했습니다."
  },
  {
    "idx": 32,
    "name": "합천 해인사 대장경판",
    "region": "경남",
    "address": "경상남도 합천군 가야면 해인사길 122, 해인사",
    "latitude": 35.801667,
    "longitude": 128.098056,
    "desc": "고려 고종 때(1236~1251년) 몽골의 침입을 불력으로 물리치고자 판각한 목판 대장경으로, '팔만대장경'이라고도 불립니다. 총 81,258매에 달하며, 현존하는 대장경 중 가장 오래되고 내용이 완벽한 것으로 평가받습니다. 해인사 장경판전(국보 제52호)에 보관되어 있으며, 유네스코 세계기록유산입니다."
  },
  {
    "idx": 33,
    "name": "창녕 신라 진흥왕 척경비",
    "region": "경남",
    "address": "경상남도 창녕군 창녕읍 교상리 28-1",
    "latitude": 35.540778,
    "longitude": 128.502722,
    "desc": "신라 진흥왕 22년(561년)에 세워진 비석으로, 진흥왕이 가야 지역을 정복하고 영토를 확장한 것을 기념하여 세운 척경비(拓境碑)입니다. 진흥왕 순수비 중 하나로, 당시 신라의 영토 확장과 국가 체제 정비 과정을 보여주는 중요한 금석문 자료입니다."
  },
  {
    "idx": 34,
    "name": "창녕 술정리 동 삼층석탑",
    "region": "경남",
    "address": "경상남도 창녕군 창녕읍 시장2길 37",
    "latitude": 35.543056,
    "longitude": 128.500556,
    "desc": "통일신라시대에 만들어진 삼층석탑입니다. 이중 기단 위에 3층의 탑신을 올린 전형적인 신라 석탑 양식을 따르고 있으며, 비례가 아름답고 조각 수법이 정교하여 경주 불국사 삼층석탑(석가탑)에 비견될 만큼 우수한 작품으로 평가받습니다."
  },
  {
    "idx": 35,
    "name": "구례 화엄사 사사자 삼층석탑",
    "region": "전남",
    "address": "전라남도 구례군 마산면 화엄사로 539, 화엄사",
    "latitude": 35.256944,
    "longitude": 127.4975,
    "desc": "통일신라시대(8세기 중엽 추정)에 만들어진 높이 7.17m의 이형 석탑입니다. 상층기단 네 모서리에 암수 네 마리의 사자가 중앙의 스님상을 향해 에워싸고 탑신을 받치고 있는 독특한 구조입니다. 탑 앞 석등 안에는 차 공양을 하는 스님상이 조각되어 있습니다."
  },
  {
    "idx": 36,
    "name": "상원사 동종",
    "region": "강원",
    "address": "강원특별자치도 평창군 진부면 오대산로 1211-50, 상원사",
    "latitude": 37.786389,
    "longitude": 128.564167,
    "desc": "신라 성덕왕 24년(725년)에 주조된 동종으로, 현존하는 한국 종 가운데 가장 오래된 것입니다. 높이 1.7m. 아름다운 비천상과 당초문양, 그리고 맑고 깨끗한 소리로 유명합니다. 원래 안동 관아에 있었으나 조선 예종 원년(1469) 상원사로 옮겨졌습니다."
  },
  {
    "idx": 37,
    "name": "경주 황복사지 삼층석탑",
    "region": "경북",
    "address": "경상북도 경주시 구황동 103",
    "latitude": 35.841389,
    "longitude": 129.233056,
    "desc": "통일신라 효소왕 원년(692년)에 건립된 높이 7.3m의 삼층석탑입니다. 이중 기단 위에 3층의 탑신을 올린 전형적인 신라 석탑 양식을 보여줍니다. 1942년 해체 수리 중 금동사리함과 금제여래좌상(국보 제79호), 금제여래입상(국보 제80호) 등이 발견되었습니다."
  },
  {
    "idx": 38,
    "name": "경주 고선사지 삼층석탑",
    "region": "경북",
    "address": "경상북도 경주시 일정로 186, 국립경주박물관",
    "latitude": 35.829167,
    "longitude": 129.227778,
    "desc": "통일신라시대 전기(7세기 후반)에 세워진 삼층석탑입니다. 원래 원효대사가 주지로 있었던 고선사 터에 있었으나, 덕동댐 건설로 국립경주박물관으로 이전되었습니다. 감은사지 석탑과 함께 신라 석탑 양식의 초기 모습을 보여주는 중요한 탑입니다."
  },
  {
    "idx": 39,
    "name": "경주 나원리 오층석탑",
    "region": "경북",
    "address": "경상북도 경주시 현곡면 나원리 672",
    "latitude": 35.878611,
    "longitude": 129.175278,
    "desc": "통일신라시대(8세기경 추정)에 세워진 높이 9.7m의 오층석탑입니다. 이중 기단 위에 5층의 탑신을 올린 형태로, 경주 지역에 드문 오층석탑 중 하나입니다. 석재의 빛깔이 하얗고 아름다워 '나원백탑'으로도 불립니다."
  },
  {
    "idx": 40,
    "name": "경주 정혜사지 십삼층석탑",
    "region": "경북",
    "address": "경상북도 경주시 안강읍 옥산리 1654",
    "latitude": 36.019167,
    "longitude": 129.157778,
    "desc": "통일신라시대(9세기 추정)에 세워진 높이 5.9m의 십삼층석탑입니다. 흙으로 쌓은 1단 기단 위에 13층의 탑신을 올린 독특한 형태로, 1층 탑신이 매우 크고 2층부터 급격히 줄어드는 모습이 특징입니다. 한국 석탑 중 유례가 드문 다층탑입니다."
  },
  {
    "idx": 41,
    "name": "청주 용두사지 철당간",
    "region": "충북",
    "address": "충청북도 청주시 상당구 남문로2가 48-19",
    "latitude": 36.634722,
    "longitude": 127.488611,
    "desc": "고려 광종 13년(962년)에 만들어진 철제 당간입니다. 높이 약 13.1m로, 20개의 철통을 이어 만들었습니다. 원래 용두사에 있었으나 절은 없어지고 당간만 남아있으며, 당간지주 중 유일하게 국보로 지정된 문화재입니다."
  },
  {
    "idx": 42,
    "name": "칠곡 송림사 오층전탑",
    "region": "경북",
    "address": "경상북도 칠곡군 동명면 송림길 73, 송림사",
    "latitude": 35.981944,
    "longitude": 128.5775,
    "desc": "통일신라시대(9세기 추정)에 흙으로 구운 벽돌을 사용하여 쌓아 올린 오층전탑입니다. 화강암 기단 위에 5층의 탑신을 올렸으며, 금동제 상륜부를 갖추고 있습니다. 1959년 해체 수리 시 많은 유물(보물 제325호)이 발견되었습니다. (현재 보물 제189호)"
  },
  {
    "idx": 43,
    "name": "혜심고신제서",
    "region": "전남",
    "address": "전라남도 순천시 송광면 송광사안길 100, 송광사 성보박물관",
    "latitude": 35.001889,
    "longitude": 127.276444,
    "desc": "고려 고종 3년(1216)에 고종이 송광사의 승려 진각국사 혜심에게 대선사(大禪師)라는 호를 내린 문서(교지)입니다. 여러 색의 비단 7장을 이어 만든 두루마리에 쓰여 있으며, 고려시대 왕실 고문서로서 중요한 가치를 지닙니다."
  },
  {
    "idx": 44,
    "name": "장흥 보림사 남·북 삼층석탑 및 석등",
    "region": "전남",
    "address": "전라남도 장흥군 유치면 보림사로 224, 보림사",
    "latitude": 34.878056,
    "longitude": 126.876389,
    "desc": "통일신라시대(870년경)에 만들어진 두 기의 삼층석탑과 한 기의 석등입니다. 남탑과 북탑은 동일한 양식과 크기로, 이중 기단 위에 3층의 탑신을 올렸습니다. 석등 역시 같은 시기에 만들어진 것으로 추정되며, 세 유물 모두 보림사의 창건 시기를 알려주는 중요한 자료입니다."
  },
  {
    "idx": 45,
    "name": "영주 부석사 소조여래좌상",
    "region": "경북",
    "address": "경상북도 영주시 부석면 부석사로 345, 부석사 무량수전",
    "latitude": 36.99889,
    "longitude": 128.6875,
    "desc": "고려시대 초기에 만들어진 소조불상(흙으로 빚어 만든 불상)입니다. 부석사 무량수전(국보 제18호) 안에 모셔져 있으며, 높이 2.78m로 한국에서 가장 큰 소조불상 중 하나입니다. 통일신라 불상 양식을 계승하면서도 고려 특유의 조형미를 보여주는 걸작입니다."
  },
  {
    "idx": 46,
    "name": "영주 부석사 조사당 벽화",
    "region": "경북",
    "address": "경상북도 영주시 부석면 부석사로 345, 부석사 성보박물관",
    "latitude": 36.99889,
    "longitude": 128.6875,
    "desc": "고려 우왕 3년(1377년) 부석사 조사당(국보 제19호) 건립 시 그려진 것으로 추정되는 벽화입니다. 사천왕상과 제석천, 범천 등이 그려져 있으며, 현재 한국에 남아있는 가장 오래된 사찰 벽화 중 하나로 회화사적으로 매우 중요한 가치를 지닙니다. 현재는 성보박물관에 보관 중입니다."
  },
  {
    "idx": 47,
    "name": "하동 쌍계사 진감선사탑비",
    "region": "경남",
    "address": "경상남도 하동군 화개면 쌍계사길 59, 쌍계사",
    "latitude": 35.230278,
    "longitude": 127.658056,
    "desc": "통일신라 정강왕 2년(887년)에 세워진 탑비로, 쌍계사를 중창한 진감선사 혜소(774~850)의 행적을 기리고 있습니다. 최치원이 비문을 짓고 썼으며, 유려한 문장과 뛰어난 서체, 그리고 정교한 조각으로 신라 하대 금석문의 대표작으로 꼽힙니다."
  },
  {
    "idx": 48,
    "name": "평창 월정사 팔각 구층석탑",
    "region": "강원",
    "address": "강원특별자치도 평창군 진부면 오대산로 374-8, 월정사",
    "latitude": 37.731389,
    "longitude": 128.591944,
    "desc": "고려시대(10세기경)에 만들어진 높이 15.2m의 팔각 구층석탑입니다. 다각다층탑의 대표적인 예로, 화려하고 귀족적인 고려 불교문화의 특징을 잘 보여줍니다. 탑 앞에는 공양하는 모습의 석조보살좌상(국보)이 있습니다."
  },
  {
    "idx": 49,
    "name": "예산 수덕사 대웅전",
    "region": "충남",
    "address": "충청남도 예산군 덕산면 수덕사안길 79, 수덕사",
    "latitude": 36.663278,
    "longitude": 126.622667,
    "desc": "고려 충렬왕 34년(1308년)에 건립된 목조건물로, 한국에 현존하는 목조건물 중 건립 연대가 명확히 밝혀진 가장 오래된 건물 중 하나입니다. 맞배지붕에 주심포 양식으로 지어졌으며, 간결하면서도 힘찬 구조미가 돋보이는 고려시대 건축의 대표작입니다."
  },
  {
    "idx": 50,
    "name": "합천 영암사지 쌍사자 석등",
    "region": "경남",
    "address": "경상남도 합천군 가회면 황매산로 637-95, 영암사지",
    "latitude": 35.474167,
    "longitude": 128.002778,
    "desc": "통일신라 후기(9세기)에 만들어진 것으로 추정되는 석등입니다. 두 마리의 사자가 마주 서서 화사석을 받치고 있는 형태로, 보은 법주사 쌍사자 석등(국보 제5호)과 함께 쌍사자 석등의 대표적인 예입니다. (현재 보물 제353호)"
  },
  {
    "idx": 51,
    "name": "강릉 임영관 삼문",
    "region": "강원",
    "address": "강원특별자치도 강릉시 임영로131번길 6",
    "latitude": 37.753333,
    "longitude": 128.892222,
    "desc": "고려시대에 창건된 강릉 객사(임영관)의 정문입니다. 정확한 건립 연대는 알 수 없으나 고려 말에서 조선 초기의 건축 양식을 보여주며, 현존하는 가장 오래된 관아 정문 중 하나입니다. 맞배지붕에 주심포 양식으로 지어졌습니다."
  },
  {
    "idx": 52,
    "name": "합천 해인사 장경판전",
    "region": "경남",
    "address": "경상남도 합천군 가야면 해인사길 122, 해인사",
    "latitude": 35.801667,
    "longitude": 128.098056,
    "desc": "고려대장경판(팔만대장경, 국보 제32호)을 보관하기 위해 조선 초기(15세기)에 지어진 목조건물입니다. 자연 통풍과 습도 조절 기능이 뛰어나도록 과학적으로 설계되어, 700년이 넘는 세월 동안 대장경판을 온전히 보존해왔습니다. 유네스코 세계문화유산으로 지정되어 있습니다."
  },
  {
    "idx": 53,
    "name": "구례 연곡사 동 승탑",
    "region": "전남",
    "address": "전라남도 구례군 토지면 피아골로 806-16, 연곡사",
    "latitude": 35.254444,
    "longitude": 127.588056,
    "desc": "통일신라 후기에 만들어진 승탑으로, 도선국사의 승탑으로 전해집니다. 8각원당형의 전형적인 신라 승탑 양식을 따르면서도 조각이 매우 화려하고 정교하여 통일신라 후기 석조미술의 수작으로 평가받습니다."
  },
  {
    "idx": 54,
    "name": "구례 연곡사 북 승탑",
    "region": "전남",
    "address": "전라남도 구례군 토지면 피아골로 806-16, 연곡사",
    "latitude": 35.254444,
    "longitude": 127.588056,
    "desc": "고려 전기에 만들어진 승탑으로, 연곡사 동 승탑(국보 제53호)과 함께 연곡사에 있습니다. 8각원당형으로, 동 승탑에 비해 조각은 다소 간략화되었으나 안정된 비례와 세련된 조형미를 보여주는 고려 초기 승탑의 대표작입니다."
  },
  {
    "idx": 55,
    "name": "보은 법주사 팔상전",
    "region": "충북",
    "address": "충청북도 보은군 속리산면 법주사로 379, 법주사",
    "latitude": 36.541944,
    "longitude": 127.833056,
    "desc": "조선 인조 2년(1624년)에 재건된 5층 목탑입니다. 한국에 현존하는 유일한 고식 목탑으로, 내부가 하나로 트여 있으며 석가모니의 일생을 여덟 장면으로 나누어 그린 팔상도(捌相圖)를 봉안하고 있습니다. 높이 약 22.7m입니다."
  },
  {
    "idx": 56,
    "name": "순천 송광사 국사전",
    "region": "전남",
    "address": "전라남도 순천시 송광면 송광사안길 100, 송광사",
    "latitude": 35.001889,
    "longitude": 127.276444,
    "desc": "조선 초기(1400년대)에 지어진 것으로 추정되는 목조건물입니다. 송광사에서 배출된 16명의 국사(國師) 진영을 모시고 있으며, 간결하고 아담한 주심포 양식 건물로 조선 초기 건축 연구에 중요한 자료입니다."
  },
  {
    "idx": 57,
    "name": "화순 쌍봉사 철감선사탑",
    "region": "전남",
    "address": "전라남도 화순군 이양면 쌍산의로 459, 쌍봉사",
    "latitude": 34.887222,
    "longitude": 127.059167,
    "desc": "통일신라시대(868년경)에 만들어진 철감선사 도윤의 승탑입니다. 8각원당형으로, 각 부분의 조각이 매우 정교하고 아름다워 통일신라시대 승탑 중 최고의 걸작으로 꼽힙니다. 높이 2.3m입니다."
  },
  {
    "idx": 58,
    "name": "청양 장곡사 철조약사여래좌상 및 석조대좌",
    "region": "충남",
    "address": "충청남도 청양군 대치면 장곡리 14, 장곡사",
    "latitude": 36.4175,
    "longitude": 126.860278,
    "desc": "통일신라 말에서 고려 초(9세기 말~10세기 초)에 만들어진 철조 불상과 석조 대좌입니다. 약사여래를 형상화한 좌상으로, 단아한 철불 양식과 특이한 탑 모양의 대좌가 특징입니다. 당시 철불 제작 기술과 불교 미술 연구에 중요한 자료입니다."
  },
  {
    "idx": 59,
    "name": "원주 법천사지 지광국사탑비",
    "region": "강원",
    "address": "강원특별자치도 원주시 부론면 법천리 산70",
    "latitude": 37.206111,
    "longitude": 127.761667,
    "desc": "고려 선종 2년(1085년)에 세워진 지광국사 해린(984~1070)의 탑비입니다. 거북받침돌, 비신, 머릿돌로 구성되며, 비신 양옆의 용 조각과 머릿돌의 연꽃무늬 등 화려하고 정교한 조각이 특징입니다. 비문은 정유산이 짓고 안민후가 썼습니다."
  },
  {
    "idx": 60,
    "name": "청자 사자형뚜껑 향로",
    "region": "서울",
    "address": "서울특별시 용산구 서빙고로 137, 국립중앙박물관",
    "latitude": 37.523889,
    "longitude": 126.980278,
    "desc": "고려 12세기에 만들어진 청자 향로입니다. 몸체 위에 사자 모양의 뚜껑이 있으며, 사자의 입을 통해 향 연기가 나오도록 만들어졌습니다. 비취색 유약과 정교한 조형미가 돋보이는 고려청자의 대표작 중 하나입니다. 국립중앙박물관 소장."
  },
  {
    "idx": 61,
    "name": "청자 어룡형 주전자",
    "region": "서울",
    "address": "서울특별시 용산구 서빙고로 137, 국립중앙박물관",
    "latitude": 37.523889,
    "longitude": 126.980278,
    "desc": "고려 12세기에 만들어진 청자 주전자입니다. 물고기 몸에 용의 머리가 달린 상상의 동물인 어룡(魚龍) 모양으로, 연꽃 줄기를 꼬아 만든 손잡이와 연잎 모양 뚜껑이 특징입니다. 창의적인 조형미와 비색 유약이 아름다운 고려청자 명품입니다. 국립중앙박물관 소장."
  },
  {
    "idx": 62,
    "name": "김제 금산사 미륵전",
    "region": "전북",
    "address": "전북특별자치도 김제시 금산면 금산리 39",
    "latitude": 35.7951,
    "longitude": 127.2839,
    "desc": "겉에서 보면 3층이지만 안은 하나로 트인 통층 건물입니다. 거대한 미륵불상을 모시기 위해 이와 같은 독특한 구조로 지어졌습니다. 정유재란으로 불탔던 것을 조선 인조 13년(1635)에 다시 지은 것으로, 17세기 건축을 대표하는 중요한 문화유산입니다."
  },
  {
    "idx": 63,
    "name": "도피안사 철조비로자나불좌상",
    "region": "강원",
    "address": "강원특별자치도 철원군 동송읍 관우리 450",
    "latitude": 38.2195,
    "longitude": 127.2731,
    "desc": "통일신라 헌안왕 3년(859)에 만들어진 철로 만든 불상입니다. 불상 뒷면에 제작 연대와 참여한 사람들의 이름이 새겨져 있어, 신라 하대 불상 연구에 기준이 되는 귀중한 작품입니다."
  },
  {
    "idx": 64,
    "name": "법주사 석련지",
    "region": "충북",
    "address": "충청북도 보은군 속리산면 법주사로 405",
    "latitude": 36.5435,
    "longitude": 127.8306,
    "desc": "법주사 경내에 있는 통일신라 시대의 돌로 만든 연못입니다. 연꽃 모양의 받침돌 위에 큰 돌그릇을 올린 형태로, 웅장하면서도 섬세한 조각 솜씨가 돋보이는 신라 석조미술의 걸작입니다."
  },
  {
    "idx": 65,
    "name": "기사계첩",
    "region": "서울",
    "address": "서울특별시 용산구 서빙고로 137, 국립중앙박물관",
    "latitude": 37.524,
    "longitude": 126.98,
    "desc": "조선 숙종 45년(1719), 왕이 기로소에 들어간 것을 기념하여 만든 화첩입니다. 당시 행사에 참여한 기로신들의 초상화와 행사 장면이 그려져 있으며, 조선 후기 궁중 기록화의 정수를 보여주는 작품입니다. 국립중앙박물관 소장."
  },
  {
    "idx": 66,
    "name": "청자 상감유죽연로원앙문 정병",
    "region": "서울",
    "address": "서울특별시 성북구 성북로 102-11, 간송미술관",
    "latitude": 37.5929,
    "longitude": 127.009,
    "desc": "고려 12세기에 만들어진 정병으로, 버드나무, 대나무, 원앙 등이 섬세하게 상감된 푸른빛의 청자입니다. 우아한 형태와 서정적인 무늬가 조화를 이루는 고려 상감청자의 대표작 중 하나입니다. 간송미술관 소장."
  },
  {
    "idx": 67,
    "name": "화엄사 각황전",
    "region": "전남",
    "address": "전라남도 구례군 마산면 화엄사로 539",
    "latitude": 35.2974,
    "longitude": 127.4988,
    "desc": "신라 시대 장육전이 있던 자리에 조선 숙종 28년(1702)에 다시 지은 2층 법당입니다. 겉은 2층이지만 내부는 하나로 트인 통층 구조로, 조선 중기 이후의 웅장한 다포계 건축 양식을 잘 보여줍니다."
  },
  {
    "idx": 68,
    "name": "청자 상감운학문 매병",
    "region": "서울",
    "address": "서울특별시 성북구 성북로 102-11, 간송미술관",
    "latitude": 37.5929,
    "longitude": 127.009,
    "desc": "고려 12세기를 대표하는 상감청자 매병입니다. 유려한 곡선미를 자랑하는 병 전면에 구름과 학 무늬를 흑백으로 상감하여 자유롭게 표현했습니다. 세련된 형태와 정교한 상감 기법이 어우러진 걸작입니다. 간송미술관 소장."
  },
  {
    "idx": 69,
    "name": "개국원종공신녹권",
    "region": "서울",
    "address": "서울특별시 용산구 서빙고로 137, 국립중앙박물관",
    "latitude": 37.524,
    "longitude": 126.98,
    "desc": "조선 건국 직후인 태조 1년(1392), 나라를 세우는 데 공을 세운 심지백에게 발급한 공신 임명 문서입니다. 현존하는 유일한 개국공신녹권으로, 조선 초기 국가 제도 연구에 매우 중요한 사료입니다. 국립중앙박물관 소장."
  },
  {
    "idx": 70,
    "name": "훈민정음",
    "region": "서울",
    "address": "서울특별시 성북구 성북로 102-11, 간송미술관",
    "latitude": 37.5929,
    "longitude": 127.009,
    "desc": "세종 28년(1446)에 간행된 훈민정음 해례본입니다. 한글의 창제 원리와 사용법을 상세히 설명한 책으로, 우리 민족의 가장 위대한 문화유산이자 유네스코 세계기록유산입니다. 간송미술관 소장."
  },
  {
    "idx": 71,
    "name": "동국정운 권1, 6",
    "region": "서울",
    "address": "서울특별시 서초구 신반포로 157, 국립중앙도서관",
    "latitude": 37.505,
    "longitude": 127.0051,
    "desc": "조선 단종 1년(1449)에 간행된 우리나라 최초의 표준음에 관한 운서(韻書)입니다. 총 6권 중 권1과 권6 두 책으로, 한자음의 혼란을 바로잡기 위해 만들었습니다. 국어사 및 음운학 연구에 귀중한 자료입니다. 국립중앙도서관 소장."
  },
  {
    "idx": 72,
    "name": "금동계미명삼존불입상",
    "region": "서울",
    "address": "서울특별시 성북구 성북로 102-11, 간송미술관",
    "latitude": 37.5929,
    "longitude": 127.009,
    "desc": "광배 뒷면에 '계미(癸未)'라는 글자가 새겨져 있어 563년(백제 창왕 6년 또는 고구려 평원왕 5년)에 만들어진 것으로 추정되는 금동 불상입니다. 하나의 광배에 본존불과 양옆의 협시보살을 함께 배치한 삼존불 형식으로, 고구려 불상으로 추정되며 당시 불상 양식을 연구하는 데 중요한 작품입니다. 간송미술관 소장."
  },
  {
    "idx": 73,
    "name": "금동삼존불감",
    "region": "서울",
    "address": "서울특별시 성북구 성북로 102-11, 간송미술관",
    "latitude": 37.5929,
    "longitude": 127.009,
    "desc": "불상을 모시기 위해 만든 작은 집 모양의 불감(佛龕)과 그 안에 모셔진 삼존불상입니다. 11~12세기 고려시대 작품으로 추정되며, 문짝 내부에 새겨진 정교한 조각이 특징입니다. 당시의 금속공예 및 건축 양식을 엿볼 수 있는 귀중한 자료입니다. 간송미술관 소장."
  },
  {
    "idx": 74,
    "name": "청자압형수적",
    "region": "서울",
    "address": "서울특별시 성북구 성북로 102-11, 간송미술관",
    "latitude": 37.5929,
    "longitude": 127.009,
    "desc": "고려시대에 만들어진 오리 모양의 청자 연적입니다. 정교하게 조각된 오리가 연꽃 줄기를 물고 있는 모습으로, 사실적인 표현과 뛰어난 조형미, 아름다운 비색 유약이 돋보입니다. 고려 순청자의 높은 수준을 보여주는 명품입니다. 간송미술관 소장."
  },
  {
    "idx": 75,
    "name": "표충사 청동 함은향완",
    "region": "경남",
    "address": "경상남도 밀양시 단장면 표충로 1338",
    "latitude": 35.5901,
    "longitude": 129.0275,
    "desc": "고려 명종 7년(1177)에 만들어진 향로입니다. 몸체에 은실로 정교하게 새겨진 글과 그림이 특징으로, 고려시대 금속공예 기술의 정수를 보여줍니다. 제작 연대와 만든 사람, 사용처가 명확히 기록되어 있어 역사적, 예술적 가치가 매우 높습니다."
  },
  {
    "idx": 76,
    "name": "이순신 난중일기 및 서간첩 임진장초",
    "region": "충남",
    "address": "충청남도 아산시 염치읍 현충사길 126",
    "latitude": 36.8143,
    "longitude": 127.022,
    "desc": "충무공 이순신 장군이 임진왜란 7년(1592~1598) 동안 직접 쓴 친필 일기입니다. 전쟁의 실상과 개인적인 감정이 생생하게 기록되어 있으며, 장군이 올린 장계(보고서) 등을 모은 임진장초와 편지를 모은 서간첩도 포함됩니다. 유네스코 세계기록유산으로 등재된 우리 민족의 위대한 기록유산입니다. 현충사 소장."
  },
  {
    "idx": 77,
    "name": "의성 탑리리 오층석탑",
    "region": "경북",
    "address": "경상북도 의성군 금성면 탑리리 720-1",
    "latitude": 36.2755,
    "longitude": 128.6672,
    "desc": "통일신라 시대에 만들어진 5층 석탑으로, 전탑(벽돌탑)을 모방하여 돌을 벽돌처럼 다듬어 쌓은 모전석탑입니다. 기단부의 정교한 조각과 탑신에 조각된 문, 감실 등이 특징이며, 신라 석탑의 초기 양식을 보여주는 중요한 탑입니다."
  },
  {
    "idx": 78,
    "name": "금동미륵보살반가사유상",
    "region": "서울",
    "address": "서울특별시 용산구 서빙고로 137, 국립중앙박물관",
    "latitude": 37.524,
    "longitude": 126.98,
    "desc": "삼국시대 6세기 후반에 만들어진 금동 반가사유상입니다. 오른쪽 다리를 왼쪽 무릎에 올리고 손가락을 뺨에 댄 채 깊은 생각에 잠긴 모습으로, 잔잔한 미소와 유기적인 신체 표현이 돋보입니다. 삼국시대 불교 조각의 정수를 보여주는 걸작입니다. 국립중앙박물관 소장."
  },
  {
    "idx": 79,
    "name": "경주 구황리 삼층석탑",
    "region": "경북",
    "address": "경상북도 경주시 구황동 314-1",
    "latitude": 35.8453,
    "longitude": 129.2312,
    "desc": "통일신라 시대인 8세기경에 만들어진 3층 석탑입니다. 현재는 황복사터로 추정되는 곳에 남아 있습니다. 2층 기단 위에 3층의 탑신을 올린 전형적인 신라 석탑 양식으로, 비교적 완전한 형태로 보존되어 있어 신라 석탑 연구에 중요한 자료가 됩니다."
  },
  {
    "idx": 80,
    "name": "경주 구황리 금제여래좌상",
    "region": "서울",
    "address": "서울특별시 용산구 서빙고로 137, 국립중앙박물관",
    "latitude": 37.524,
    "longitude": 126.98,
    "desc": "국보 제79호 경주 구황리 삼층석탑을 수리하던 중 2층 지붕돌에서 발견된 순금 제 여래 좌상입니다. 통일신라 시대 작품으로, 작은 크기에도 불구하고 정교하고 섬세한 조각 솜씨가 돋보이는 불상입니다. 국립중앙박물관 소장."
  },
  {
    "idx": 81,
    "name": "감산사 석조미륵보살입상",
    "region": "서울",
    "address": "서울특별시 용산구 서빙고로 137, 국립중앙박물관",
    "latitude": 37.524,
    "longitude": 126.98,
    "desc": "통일신라 성덕왕 18년(719)에 감산사(甘山寺)에 모셔졌던 돌로 만든 미륵보살 입상입니다. 광배 뒷면에 새겨진 글을 통해 만들어진 연대와 목적을 명확히 알 수 있습니다. 사실적이고 생동감 넘치는 조각으로, 8세기 신라 조각의 높은 수준을 보여줍니다. 국립중앙박물관 소장."
  },
  {
    "idx": 82,
    "name": "감산사 석조아미타불입상",
    "region": "서울",
    "address": "서울특별시 용산구 서빙고로 137, 국립중앙박물관",
    "latitude": 37.524,
    "longitude": 126.98,
    "desc": "국보 제81호 미륵보살입상과 함께 감산사에 모셔졌던 아미타불 입상입니다. 성덕왕 18년(719)에 김지성(金志誠)이 부모님의 명복을 빌기 위해 만들었으며, 광배 뒷면에 그 내용이 기록되어 있습니다. 통일신라 전성기의 불상 양식을 대표하는 작품입니다. 국립중앙박물관 소장."
  },
  {
    "idx": 83,
    "name": "금동미륵보살반가사유상",
    "region": "서울",
    "address": "서울특별시 용산구 서빙고로 137, 국립중앙박물관",
    "latitude": 37.524,
    "longitude": 126.98,
    "desc": "삼국시대 7세기 전반에 제작된 것으로 추정되는 금동 반가사유상입니다. 단순하면서도 균형 잡힌 신체, 생생하고 자연스러운 옷주름 표현, 온화하고 신비로운 미소가 특징입니다. 우리나라를 대표하는 세계적인 불교 조각품으로 꼽힙니다. 국립중앙박물관 소장."
  },
  {
    "idx": 84,
    "name": "서산 용현리 마애여래삼존상",
    "region": "충남",
    "address": "충청남도 서산시 운산면 용현리 2-1",
    "latitude": 36.6975,
    "longitude": 126.5898,
    "desc": "백제 후기(6세기 말~7세기 초)에 만들어진 것으로 추정되는 마애불입니다. 빛의 방향에 따라 미소가 다르게 보이는 독특한 표현으로 '백제의 미소'라는 별칭을 가지고 있습니다. 중앙의 본존불과 좌우의 보살상이 온화하고 따뜻한 느낌을 주는 백제 불교미술의 걸작입니다."
  },
  {
    "idx": 85,
    "name": "금동신묘명삼존불입상",
    "region": "서울",
    "address": "서울특별시 용산구 서빙고로 137, 국립중앙박물관",
    "latitude": 37.524,
    "longitude": 126.98,
    "desc": "광배 뒷면의 글을 통해 고구려 평원왕 13년(571)에 만들어졌음을 알 수 있는 금동 삼존불상입니다. 하나의 광배에 본존불과 협시보살을 함께 표현했으며, 힘차고 당당한 기상이 느껴지는 고구려 불상의 특징을 잘 보여줍니다. 국립중앙박물관 소장."
  },
  {
    "idx": 86,
    "name": "경천사 십층석탑",
    "region": "서울",
    "address": "서울특별시 용산구 서빙고로 137, 국립중앙박물관",
    "latitude": 37.524,
    "longitude": 126.98,
    "desc": "고려 충목왕 4년(1348)에 세워진 대리석 석탑입니다. 탑 전체에 불상, 보살, 용, 연꽃 등 화려한 조각이 가득하며, 기단부에는 원나라의 영향을 받은 인물상들이 새겨져 있습니다. 고려 후기 석탑의 새로운 양식을 보여주는 중요한 작품입니다. 국립중앙박물관 소장."
  },
  {
    "idx": 87,
    "name": "금관총 금관 및 금제 관식",
    "region": "경북",
    "address": "경상북도 경주시 일정로 186, 국립경주박물관",
    "latitude": 35.8329,
    "longitude": 129.2274,
    "desc": "경주 금관총에서 출토된 신라 시대의 금관과 관식입니다. 얇은 금판을 오려 만든 관테에 나뭇가지와 사슴뿔 모양 장식을 세웠으며, 굽은 옥과 금 장식을 달아 화려함을 더했습니다. 신라의 뛰어난 금속공예 기술과 독특한 문화를 보여주는 대표적인 유물입니다. 국립경주박물관 소장."
  },
  {
    "idx": 88,
    "name": "금관총 금제 허리띠",
    "region": "경북",
    "address": "경상북도 경주시 일정로 186, 국립경주박물관",
    "latitude": 35.8329,
    "longitude": 129.2274,
    "desc": "금관총에서 금관과 함께 출토된 신라의 금제 허리띠입니다. 금으로 만든 띠판에 다양한 장식을 연결하였으며, 끝에는 물고기, 굽은 옥, 주머니 등 여러 모양의 장식물(요패)을 달았습니다. 신라 지배층의 권위와 화려한 생활상을 엿볼 수 있습니다. 국립경주박물관 소장."
  },
  {
    "idx": 89,
    "name": "평양 석암리 금제 띠고리",
    "region": "서울",
    "address": "서울특별시 용산구 서빙고로 137, 국립중앙박물관",
    "latitude": 37.524,
    "longitude": 126.98,
    "desc": "평양 석암리 9호분에서 출토된 낙랑 시대의 허리띠 고리입니다. 금판 위에 여러 마리의 용이 꿈틀거리는 모습을 매우 정교하게 표현했으며, 옥과 유리로 장식하여 화려함을 더했습니다. 한나라 공예 기술의 영향을 보여주며, 당시 최고 수준의 금속공예품으로 평가받습니다. 국립중앙박물관 소장."
  },
  {
    "idx": 90,
    "name": "경주 부부총 금귀걸이",
    "region": "서울",
    "address": "서울특별시 용산구 서빙고로 137, 국립중앙박물관",
    "latitude": 37.524,
    "longitude": 126.98,
    "desc": "경주 보문동 합장분(부부총)에서 출토된 신라 6세기경의 금귀걸이 한 쌍입니다. 굵은 고리 아래에 나뭇잎과 하트 모양 장식을 달고, 맨 아래에는 금 알갱이를 붙여 만든 화려한 장식을 매달았습니다. 신라 금속공예의 정교함과 세련미를 잘 보여주는 작품입니다. 국립중앙박물관 소장."
  },
  {
    "idx": 91,
    "name": "기마인물형 토기",
    "region": "경북",
    "address": "경상북도 경주시 일정로 186, 국립경주박물관",
    "latitude": 35.8329,
    "longitude": 129.2274,
    "desc": "신라 시대 무덤인 금령총에서 출토된 말 탄 사람 모양의 토기입니다. 말을 탄 주인과 하인의 모습을 각각 표현한 한 쌍으로, 당시의 복식과 말갖춤(마구) 등을 사실적으로 보여주어 신라의 생활상과 문화를 이해하는 데 매우 중요한 자료입니다. 국립경주박물관 소장."
  },
  {
    "idx": 92,
    "name": "청동 은입사 포류수금문 정병",
    "region": "서울",
    "address": "서울특별시 용산구 서빙고로 137, 국립중앙박물관",
    "latitude": 37.524,
    "longitude": 126.98,
    "desc": "고려시대에 만들어진 청동 정병으로, 표면에 은실을 박아 넣어 무늬를 만드는 은입사 기법으로 장식되었습니다. 물가의 풍경 속에서 배를 띄우고 새를 바라보는 사람들의 모습이 서정적으로 표현되어 있습니다. 고려시대 금속공예와 회화의 높은 수준을 함께 보여주는 명품입니다. 국립중앙박물관 소장."
  },
  {
    "idx": 93,
    "name": "백자 철화 포도문 항아리",
    "region": "서울",
    "address": "서울특별시 용산구 서빙고로 137, 국립중앙박물관",
    "latitude": 37.524,
    "longitude": 126.98,
    "desc": "조선 17세기경에 만들어진 백자 항아리입니다. 넉넉하고 힘 있는 형태의 항아리 표면에 철 안료를 사용하여 활기 넘치는 포도 넝쿨 무늬를 그렸습니다. 조선 백자의 소박하고 건강한 아름다움을 잘 보여주는 작품으로 평가받습니다. 국립중앙박물관 소장."
  },
  {
    "idx": 94,
    "name": "청자 소용녀형 연적",
    "region": "서울",
    "address": "서울특별시 용산구 서빙고로 137, 국립중앙박물관",
    "latitude": 37.524,
    "longitude": 126.98,
    "desc": "고려시대에 만들어진 청자 연적으로, 도교의 신선 이야기를 주제로 한 것으로 보입니다. 동자가 연꽃 봉오리를 들고 거북과 용의 머리를 한 동물 위에 앉아 있는 독특한 모습입니다. 상상력이 돋보이는 형태와 맑은 비색 유약이 어우러진 수작입니다. 국립중앙박물관 소장."
  },
  {
    "idx": 95,
    "name": "청자 투각칠보문뚜껑 향로",
    "region": "서울",
    "address": "서울특별시 용산구 서빙고로 137, 국립중앙박물관",
    "latitude": 37.524,
    "longitude": 126.98,
    "desc": "고려 12세기에 만들어진 청자 향로입니다. 뚜껑에는 칠보무늬를 정교하게 투각(뚫어서 무늬를 만듦)하였고, 몸체는 연꽃잎으로 장식하였으며, 아래는 토끼 모양의 다리가 받치고 있습니다. 고려 상감청자의 절정기 기술을 보여주는 대표적인 명품입니다. 국립중앙박물관 소장."
  },
  {
    "idx": 96,
    "name": "청자 구룡형 주전자",
    "region": "서울",
    "address": "서울특별시 용산구 서빙고로 137, 국립중앙박물관",
    "latitude": 37.524,
    "longitude": 126.98,
    "desc": "고려 12세기에 만들어진 거북 모양의 청자 주전자입니다. 거북 등 위에 연꽃이 앉아 있고, 그 위에 또 작은 거북이 앉아 있는 복잡하고 정교한 구조입니다. 사실적인 묘사와 뛰어난 조형미, 아름다운 비색이 어우러진 고려청자의 걸작입니다. 국립중앙박물관 소장."
  },
  {
    "idx": 97,
    "name": "청자 음각연화당초문 매병",
    "region": "서울",
    "address": "서울특별시 용산구 서빙고로 137, 국립중앙박물관",
    "latitude": 37.524,
    "longitude": 126.98,
    "desc": "고려 12세기에 만들어진 청자 매병입니다. 풍만한 어깨와 잘록한 허리, 살짝 벌어진 아랫부분이 조화를 이루는 유려한 곡선미가 특징입니다. 표면에 연꽃과 덩굴무늬를 음각 기법으로 섬세하게 새겼으며, 맑고 투명한 비색 유약이 아름답습니다. 국립중앙박물관 소장."
  },
  {
    "idx": 98,
    "name": "청자 상감모란문 항아리",
    "region": "서울",
    "address": "서울특별시 용산구 서빙고로 137, 국립중앙박물관",
    "latitude": 37.524,
    "longitude": 126.98,
    "desc": "고려 12세기에 만들어진 청자 항아리입니다. 넉넉하고 풍만한 형태에 뚜껑까지 온전하게 남아있습니다. 몸체 전면에 흑백 상감 기법으로 모란 넝쿨무늬를 가득 채워 화려함을 더했습니다. 고려 상감청자의 전성기 양식을 보여주는 작품입니다. 국립중앙박물관 소장."
  },
  {
    "idx": 99,
    "name": "갈항사 동서 삼층석탑",
    "region": "서울",
    "address": "서울특별시 용산구 서빙고로 137, 국립중앙박물관",
    "latitude": 37.524,
    "longitude": 126.98,
    "desc": "통일신라 경덕왕 17년(758)에 갈항사(葛項寺)에 세워졌던 두 개의 삼층석탑입니다. 동탑 기단에 새겨진 글을 통해 만들어진 연대와 목적을 정확히 알 수 있습니다. 전형적인 신라 석탑 양식을 따르면서도 각 부의 비례가 아름다운 통일신라 전성기의 대표적인 석탑입니다. 국립중앙박물관 소장."
  },
  {
    "idx": 100,
    "name": "남계원 칠층석탑",
    "region": "서울",
    "address": "서울특별시 용산구 서빙고로 137, 국립중앙박물관",
    "latitude": 37.524,
    "longitude": 126.98,
    "desc": "고려시대에 개성 남계원 터에 세워졌던 7층 석탑입니다. 고려 시대에 유행했던 경천사 십층석탑과 같은 대리석 탑의 양식을 따르면서도, 세부적인 조각은 더 단순화되었습니다. 고려 후기 석탑 양식의 변천 과정을 보여주는 중요한 자료입니다. 국립중앙박물관 소장."
  },
  {
    "idx": 101,
    "name": "법천사 지광국사탑",
    "region": "강원",
    "address": "강원특별자치도 원주시 부론면 법천리 산74-2 (탑 복원 부지)",
    "latitude": 37.1687,
    "longitude": 127.7663,
    "desc": "고려시대 승려 지광국사 해린(984~1067)의 사리를 모신 승탑입니다. 평면이 사각형인 독특한 형태와 화려하고 이국적인 조각이 특징으로, 고려시대 승탑 중 가장 개성 있고 아름다운 작품으로 꼽힙니다. 현재는 부재 상태로 보존 중이며 복원을 앞두고 있습니다."
  },
  {
    "idx": 102,
    "name": "정토사 홍법국사탑",
    "region": "서울",
    "address": "서울특별시 용산구 서빙고로 137, 국립중앙박물관",
    "latitude": 37.524,
    "longitude": 126.98,
    "desc": "고려시대 승려 홍법국사(1021~1097)의 사리를 모신 승탑입니다. 전체적으로 팔각을 기본으로 하고 있으며, 섬세하고 화려한 조각 장식이 돋보입니다. 고려시대 승탑의 전형적인 양식을 따르면서도 뛰어난 조형미를 보여주는 작품입니다. 국립중앙박물관 소장."
  },
  {
    "idx": 103,
    "name": "광양 중흥산성 쌍사자 석등",
    "region": "광주",
    "address": "광주광역시 북구 하서로 110, 국립광주박물관",
    "latitude": 35.1873,
    "longitude": 126.892,
    "desc": "통일신라 시대에 만들어진 석등으로, 두 마리의 사자가 마주 서서 불을 밝히는 화사석(火舍石)을 받치고 있는 독특한 형태입니다. 힘차고 생동감 넘치는 사자 조각이 특징이며, 통일신라 석등 중 조각 솜씨가 가장 뛰어난 걸작으로 평가받습니다. 국립광주박물관 소장."
  },
  {
    "idx": 104,
    "name": "전(傳) 염거화상탑",
    "region": "서울",
    "address": "서울특별시 용산구 서빙고로 137, 국립중앙박물관",
    "latitude": 37.524,
    "longitude": 126.98,
    "desc": "통일신라 문성왕 6년(844)에 세워진 것으로 추정되는 승탑입니다. 우리나라에 현존하는 승탑 중 가장 오래된 것으로, 팔각을 기본으로 한 소박하고 단정한 조형미가 특징입니다. 우리나라 승탑의 초기 양식을 보여주는 매우 중요한 문화재입니다. 국립중앙박물관 소장."
  },
  {
    "idx": 105,
    "name": "산청 범학리 삼층석탑",
    "region": "경남",
    "address": "경상남도 산청군 단성면 백운로26번길 43",
    "latitude": 35.2447,
    "longitude": 128.0242,
    "desc": "통일신라 시대에 만들어진 3층 석탑입니다. 2층 기단 위에 3층의 탑신을 올린 전형적인 신라 석탑 양식을 따르고 있으며, 각 부의 비례가 아름답고 안정감이 있습니다. 기단부와 탑신에 새겨진 팔부중상과 사천왕상 조각이 매우 뛰어납니다."
  },
  {
    "idx": 106,
    "name": "계유명전씨아미타불비상",
    "region": "충북",
    "address": "충청북도 청주시 상당구 명암로 143, 국립청주박물관",
    "latitude": 36.6508,
    "longitude": 127.5222,
    "desc": "'계유'년(673년, 신라 문무왕 13년)에 전씨(全氏) 일가가 아미타불을 만들었다는 내용이 새겨진 비석 형태의 불상입니다. 앞면에는 아미타삼존불을, 뒷면에는 천불(千佛)을 정교하게 조각했습니다. 만들어진 연대와 목적이 명확하여 통일신라 초기 불교 조각사 연구에 귀중한 자료입니다. 국립청주박물관 소장."
  },
  {
    "idx": 107,
    "name": "백자 철화매죽문 항아리",
    "region": "서울",
    "address": "서울특별시 서대문구 이화여대길 52, 이화여자대학교박물관",
    "latitude": 37.5619,
    "longitude": 126.946,
    "desc": "조선 16세기에 만들어진 백자 항아리입니다. 둥글고 풍만한 형태에 철 안료를 사용하여 한쪽에는 매화, 다른 쪽에는 대나무를 간결하고 힘 있는 필치로 그렸습니다. 조선 전기 백자의 호방하고 활달한 미의식을 잘 보여주는 명품입니다. 이화여자대학교박물관 소장."
  },
  {
    "idx": 108,
    "name": "계유명삼존천불비상",
    "region": "서울",
    "address": "서울특별시 용산구 서빙고로 137, 국립중앙박물관",
    "latitude": 37.524,
    "longitude": 126.98,
    "desc": "'계유'년(673년, 신라 문무왕 13년)에 만들어진 비석 형태의 불상입니다. 앞면에는 삼존불을, 나머지 세 면에는 작은 불상(천불)을 가득 새겼습니다. 제작 연대가 확실하고 당시의 신앙 형태를 보여주는 귀중한 자료로, 통일신라 초기 조각의 우수성을 보여줍니다. 국립중앙박물관 소장."
  },
  {
    "idx": 109,
    "name": "군위 아미타여래삼존 석굴",
    "region": "경북",
    "address": "경상북도 군위군 부계면 남산리 243",
    "latitude": 36.1436,
    "longitude": 128.6186,
    "desc": "7세기 후반 통일신라 시대에 만들어진 우리나라 최초의 석굴사원입니다. 자연 암벽을 파서 만든 석굴 안에 아미타여래를 중심으로 좌우에 보살상을 모셨습니다. 경주 석굴암의 모태가 되었다는 점에서 역사적, 학술적 가치가 매우 높습니다."
  },
  {
    "idx": 110,
    "name": "이제현 초상",
    "region": "서울",
    "address": "서울특별시 용산구 서빙고로 137, 국립중앙박물관",
    "latitude": 37.524,
    "longitude": 126.98,
    "desc": "고려 후기의 문신이자 학자인 익재 이제현(1287~1367)의 초상화입니다. 원본은 1330년에 그려졌으며, 이 그림은 1748년에 원본을 보고 다시 그린 것입니다. 고려시대 초상화의 높은 수준을 보여주는 귀중한 작품으로, 인물의 인품과 기상이 잘 드러나 있습니다. 국립중앙박물관 소장."
  },
  {
    "idx": 111,
    "name": "안동 조탑동 오층전탑",
    "region": "경북",
    "address": "경상북도 안동시 일직면 조탑길 103",
    "latitude": 36.502,
    "longitude": 128.6293,
    "desc": "통일신라 시대에 흙으로 구운 벽돌을 이용하여 쌓은 5층 전탑입니다. 1층 몸돌에는 감실(불상을 모시는 공간)을 만들었으며, 지붕돌의 형태가 독특합니다. 우리나라에 몇 안 되는 전탑 중 하나로, 신라 시대 전탑의 양식을 연구하는 데 중요한 자료입니다."
  },
  {
    "idx": 112,
    "name": "감은사지 동서 삼층석탑",
    "region": "경북",
    "address": "경상북도 경주시 양북면 용당리 55-3",
    "latitude": 35.7897,
    "longitude": 129.4313,
    "desc": "통일신라 신문왕 2년(682)에 세워진 두 개의 삼층석탑입니다. 동해를 바라보는 감은사 터에 동쪽과 서쪽에 나란히 서 있으며, 우리나라 석탑 중 가장 큰 규모를 자랑합니다. 장중하고 힘찬 기상이 느껴지는 통일신라 초기 석탑의 대표작입니다."
  },
  {
    "idx": 113,
    "name": "청자 철화양류문 통형 병",
    "region": "서울",
    "address": "서울특별시 용산구 서빙고로 137, 국립중앙박물관",
    "latitude": 37.524,
    "longitude": 126.98,
    "desc": "고려 12세기에 만들어진 원통 모양의 청자 병입니다. 철 안료를 사용하여 바람에 휘날리는 버드나무 한 그루를 자유분방하고 대담한 필치로 그렸습니다. 고려청자의 또 다른 아름다움을 보여주는 작품으로, 회화성이 뛰어난 명품입니다. 국립중앙박물관 소장."
  },
  {
    "idx": 114,
    "name": "청자 상감모란국화문 참외모양 병",
    "region": "서울",
    "address": "서울특별시 용산구 서빙고로 137, 국립중앙박물관",
    "latitude": 37.524,
    "longitude": 126.98,
    "desc": "고려 12세기에 만들어진 참외 모양의 청자 병입니다. 몸체를 참외처럼 골을 내어 만들고, 각 면에 모란과 국화무늬를 흑백으로 정교하게 상감했습니다. 고려 상감청자의 대표적인 형태로, 세련된 조형미와 섬세한 장식이 돋보입니다. 국립중앙박물관 소장."
  },
  {
    "idx": 115,
    "name": "청자 상감당초문 완",
    "region": "서울",
    "address": "서울특별시 용산구 서빙고로 137, 국립중앙박물관",
    "latitude": 37.524,
    "longitude": 126.98,
    "desc": "고려 12세기에 만들어진 청자 대접입니다. 안쪽과 바깥쪽 면에 덩굴무늬를 흑백 상감으로 빽빽하게 채워 넣었습니다. 정교하고 세련된 상감 기법과 단정한 형태, 맑은 비색 유약이 조화를 이루는 고려 상감청자의 수작입니다. 국립중앙박물관 소장."
  },
  {
    "idx": 116,
    "name": "청자 상감국화모란문과형 주전자",
    "region": "서울",
    "address": "서울특별시 용산구 서빙고로 137, 국립중앙박물관",
    "latitude": 37.524,
    "longitude": 126.98,
    "desc": "고려 12~13세기에 만들어진 참외 모양의 청자 주전자입니다. 몸체에는 국화와 모란 무늬를, 뚜껑에는 연꽃 무늬를 상감 기법으로 장식했습니다. 안정감 있는 형태와 섬세한 무늬가 어우러진 고려 상감청자의 대표적인 주전자입니다. 국립중앙박물관 소장."
  },
  {
    "idx": 117,
    "name": "보림사 철조비로자나불좌상",
    "region": "전남",
    "address": "전라남도 장흥군 유치면 보림사로 444",
    "latitude": 34.8258,
    "longitude": 126.8523,
    "desc": "통일신라 헌안왕 2년(858)에 만들어진 철로 만든 불상입니다. 불상 받침대에 새겨진 글을 통해 제작 연대와 만든 사람 등을 명확히 알 수 있습니다. 신라 하대 철불의 대표적인 예로, 당시 불상 양식 연구에 중요한 기준이 되는 작품입니다."
  },
  {
    "idx": 118,
    "name": "금동미륵보살입상",
    "region": "서울",
    "address": "서울특별시 강남구 도산대로37길 36, 호림박물관",
    "latitude": 37.5222,
    "longitude": 127.032,
    "desc": "고구려 6세기 후반에 만들어진 것으로 추정되는 금동 미륵보살 입상입니다. 머리에는 세 개의 산 모양 장식이 있는 삼산관(三山冠)을 쓰고 있으며, 앳된 얼굴과 당당한 신체 표현이 특징입니다. 고구려 불상의 힘찬 기상을 잘 보여주는 작품입니다. 호림박물관 소장."
  },
  {
    "idx": 119,
    "name": "금동보살입상",
    "region": "서울",
    "address": "서울특별시 성북구 성북로 102-11, 간송미술관",
    "latitude": 37.5929,
    "longitude": 127.009,
    "desc": "삼국시대 6세기 후반에 만들어진 것으로 추정되는 금동 보살 입상입니다. 머리에 쓴 화려한 보관과 목걸이, 팔찌 등 장신구가 매우 정교하고 아름답습니다. 온화한 미소와 부드러운 신체 표현이 돋보이는 삼국시대 보살상의 걸작입니다. 간송미술관 소장."
  },
  {
    "idx": 120,
    "name": "용주사 동종",
    "region": "경기",
    "address": "경기도 화성시 용주로 136",
    "latitude": 37.2144,
    "longitude": 127.0006,
    "desc": "통일신라 시대에 만들어진 범종으로, 신라 종의 전형적인 특징을 잘 보여줍니다. 종을 치는 부분인 당좌(撞座)와 종을 매다는 용뉴(龍鈕), 그리고 하늘을 나는 비천상 조각이 아름답습니다. 고려시대 종인 연복사종을 만들 때 이 종을 본떠 만들었다는 기록이 남아 있습니다."
  },
  {
    "idx": 121,
    "name": "하회탈 및 병산탈",
    "region": "경북",
    "address": "경상북도 안동시 풍천면 전서로 186, 국립안동대학교 박물관 등",
    "latitude": 36.5627,
    "longitude": 128.5137,
    "desc": "고려 중기에 제작된 것으로 추정되는 우리나라에서 가장 오래된 가면입니다. 안동 하회마을과 병산마을의 별신굿 탈놀이에 사용되었으며, 사실적이고 해학적인 표정이 특징입니다. 주지, 각시, 양반, 선비, 중, 백정 등 등장인물의 성격이 잘 표현되어 있습니다."
  },
  {
    "idx": 122,
    "name": "진전사지 삼층석탑",
    "region": "강원",
    "address": "강원특별자치도 양양군 강현면 둔전리 산 129",
    "latitude": 38.0772,
    "longitude": 128.6471,
    "desc": "통일신라 8세기 후반의 석탑으로, 기단과 탑신에 부처, 보살, 사천왕 등 화려한 조각이 가득 새겨져 있습니다. 감은사지 석탑의 양식을 계승하면서도 장식성이 강한 신라 하대 석탑의 걸작으로 꼽힙니다."
  },
  {
    "idx": 123,
    "name": "익산 왕궁리 오층석탑",
    "region": "전북",
    "address": "전북특별자치도 익산시 왕궁면 궁성로 666",
    "latitude": 36.0028,
    "longitude": 127.0427,
    "desc": "백제 무왕 때의 왕궁터로 추정되는 곳에 서 있는 석탑입니다. 목탑의 양식을 많이 반영한 초기 석탑의 특징을 보여주며, 1965년 해체 수리 중 탑 안에서 금강경판, 사리함 등 귀중한 유물이 발견되었습니다."
  },
  {
    "idx": 124,
    "name": "한강 상류 출토 일괄 유물",
    "region": "강원",
    "address": "강원특별자치도 춘천시 우석로 70, 국립춘천박물관",
    "latitude": 37.8727,
    "longitude": 127.737,
    "desc": "강원도 지역에서 출토된 청동기시대 유물을 일괄 지정한 것입니다. 비파형동검, 방패형동기, 간두령 등이 포함되며, 우리나라 청동기 문화의 독자성과 높은 수준을 보여주는 중요한 고고학 자료입니다. 국립춘천박물관 소장."
  },
  {
    "idx": 125,
    "name": "녹유골호",
    "region": "서울",
    "address": "서울특별시 용산구 서빙고로 137, 국립중앙박물관",
    "latitude": 37.524,
    "longitude": 126.98,
    "desc": "통일신라 시대에 만들어진 녹색 유약을 바른 뼈 항아리(골호)입니다. 경북 영주 부석사에서 출토된 것으로 전해지며, 뚜껑의 사자 장식과 몸체의 화려한 무늬가 특징입니다. 통일신라 도기 제작 기술의 정수를 보여줍니다. 국립중앙박물관 소장."
  },
  {
    "idx": 126,
    "name": "불국사 삼층석탑 사리장엄구",
    "region": "서울",
    "address": "서울특별시 용산구 서빙고로 137, 국립중앙박물관",
    "latitude": 37.524,
    "longitude": 126.98,
    "desc": "1966년 불국사 삼층석탑(석가탑)을 수리하다 발견된 유물들입니다. 세계 최고(最古)의 목판 인쇄물인 '무구정광대다라니경'을 비롯하여 사리함, 비단, 구슬 등 통일신라 시대의 귀중한 보물들이 포함되어 있습니다. 국립중앙박물관 소장."
  },
  {
    "idx": 127,
    "name": "금동관음보살입상",
    "region": "서울",
    "address": "서울특별시 용산구 서빙고로 137, 국립중앙박물관",
    "latitude": 37.524,
    "longitude": 126.98,
    "desc": "백제 시대에 만들어진 금동 관음보살상입니다. 부드럽고 온화한 표정과 유연하고 균형 잡힌 신체 표현이 특징으로, '백제의 미소'를 대표하는 불상 중 하나로 꼽힙니다. 백제 불교 조각의 높은 예술성을 보여줍니다. 국립중앙박물관 소장."
  },
  {
    "idx": 128,
    "name": "금동관음보살입상",
    "region": "서울",
    "address": "서울특별시 강남구 도산대로37길 36, 호림박물관",
    "latitude": 37.5222,
    "longitude": 127.032,
    "desc": "고구려 시대에 만들어진 금동 관음보살상입니다. 머리에는 높은 보관을 쓰고, 양 손으로 보주(寶珠)를 들고 있는 모습입니다. 힘 있고 당당한 기상과 정교한 장식이 돋보이는 고구려 불교미술의 수작입니다. 호림박물관 소장."
  },
  {
    "idx": 129,
    "name": "금동보살입상",
    "region": "서울",
    "address": "서울특별시 용산구 서빙고로 137, 국립중앙박물관",
    "latitude": 37.524,
    "longitude": 126.98,
    "desc": "삼국시대 6세기경에 만들어진 금동 보살상입니다. 머리에 쓴 삼산관(三山冠), 천진난만한 얼굴 표정, 부드러운 옷주름 표현이 특징입니다. 고구려 불상으로 추정되며, 단순하면서도 세련된 조형미를 보여줍니다. 국립중앙박물관 소장."
  },
  {
    "idx": 130,
    "name": "선산 죽장동 오층석탑",
    "region": "경북",
    "address": "경상북도 구미시 죽장리 512-2",
    "latitude": 36.1775,
    "longitude": 128.3243,
    "desc": "통일신라 시대의 5층 석탑으로, 전탑(벽돌탑)을 모방하여 돌을 벽돌처럼 다듬어 쌓은 모전석탑입니다. 각 층마다 감실(불상을 모시는 공간)을 만들고, 그 양옆에 사자, 인왕상 등을 조각한 것이 특징입니다."
  },
  {
    "idx": 131,
    "name": "고려 태조 왕건상",
    "region": "서울",
    "address": "서울특별시 용산구 서빙고로 137, 국립중앙박물관",
    "latitude": 37.524,
    "longitude": 126.98,
    "desc": "개성 현릉에서 출토된 것으로 전해지는 고려 태조 왕건의 청동상입니다. 제복을 입고 의자에 앉아 있는 모습으로, 고려시대 왕의 모습을 보여주는 유일한 조각상이라는 점에서 역사적 가치가 매우 큽니다. 국립중앙박물관 소장."
  },
  {
    "idx": 132,
    "name": "징비록",
    "region": "경북",
    "address": "경상북도 안동시 도산면 퇴계로 1997, 한국국학진흥원",
    "latitude": 36.7266,
    "longitude": 128.8471,
    "desc": "조선 선조 때 영의정을 지낸 서애 류성룡(1542~1607)이 임진왜란의 원인과 전황, 자신의 정책 등을 기록한 책입니다. '지난 일을 반성하여 후환을 경계한다'는 의미로, 임진왜란사 연구의 가장 중요한 사료 중 하나입니다. 유네스코 세계기록유산으로 등재되었습니다."
  },
  {
    "idx": 133,
    "name": "청자 동화연화문 표주박모양 주전자",
    "region": "서울",
    "address": "서울특별시 강남구 도산대로37길 36, 호림박물관",
    "latitude": 37.5222,
    "longitude": 127.032,
    "desc": "고려 12세기에 만들어진 표주박 모양의 청자 주전자입니다. 맑은 비색 바탕에 산화동 안료(진사)를 사용하여 붉은색 연꽃무늬를 그려 넣었습니다. 청자에 진사를 사용한 초기 예로, 기술적으로나 예술적으로 매우 뛰어난 명품입니다. 호림박물관 소장."
  },
  {
    "idx": 134,
    "name": "금동보살삼존입상",
    "region": "서울",
    "address": "서울특별시 성북구 성북로 102-11, 간송미술관",
    "latitude": 37.5929,
    "longitude": 127.009,
    "desc": "삼국시대 6~7세기에 제작된 금동 불상으로, 하나의 광배에 본존불과 두 협시보살을 함께 배치했습니다. 본존불의 독특한 옷차림과 광배의 화려한 불꽃무늬가 특징입니다. 고구려 불상으로 추정되며, 당시의 활발한 국제 교류를 보여줍니다. 간송미술관 소장."
  },
  {
    "idx": 135,
    "name": "혜원풍속도 화첩",
    "region": "서울",
    "address": "서울특별시 성북구 성북로 102-11, 간송미술관",
    "latitude": 37.5929,
    "longitude": 127.009,
    "desc": "조선 후기의 화가 혜원 신윤복(1758~?)이 그린 풍속화 30여 점을 모은 화첩입니다. 양반과 기생의 생활, 남녀 간의 애정 등을 세련되고 감각적인 필치로 담아냈습니다. 김홍도와 함께 조선 풍속화의 쌍벽을 이루는 걸작입니다. 간송미술관 소장."
  },
  {
    "idx": 136,
    "name": "용두보당",
    "region": "서울",
    "address": "서울특별시 용산구 서빙고로 137, 국립중앙박물관",
    "latitude": 37.524,
    "longitude": 126.98,
    "desc": "고려시대 사찰에서 의식이 있을 때 당(幢)이라는 깃발을 달던 깃대 머리 장식입니다. 용의 머리 모양으로 역동적이고 정교하게 조각되었으며, 양쪽 귀에 방울을 달았던 흔적이 남아 있습니다. 고려 금속공예의 높은 수준을 보여줍니다. 국립중앙박물관 소장."
  },
  {
    "idx": 137,
    "name": "대구 비산동·내당동 출토 동기류",
    "region": "서울",
    "address": "서울특별시 용산구 서빙고로 137, 국립중앙박물관",
    "latitude": 37.524,
    "longitude": 126.98,
    "desc": "대구 비산동과 내당동 유적에서 출토된 초기 철기시대의 청동 유물들입니다. 검파형(칼자루 끝장식) 동기, 방패형 동기 등 제사 의식에 사용된 것으로 보이는 독특한 형태의 청동기들로, 한국식 동검 문화의 특징을 잘 보여줍니다. 국립중앙박물관 소장."
  },
  {
    "idx": 138,
    "name": "금관 및 부속금구",
    "region": "경북",
    "address": "경상북도 경주시 일정로 186, 국립경주박물관",
    "latitude": 35.8329,
    "longitude": 129.2274,
    "desc": "경주 천마총에서 출토된 신라 금관입니다. 나뭇가지 모양과 사슴뿔 모양 장식을 세우고 굽은 옥과 금 장식을 매달아 화려하게 만들었습니다. 신라 금관의 전형적인 형태로, 신라의 뛰어난 금속공예 기술과 지배자의 권위를 상징합니다. 국립경주박물관 소장."
  },
  {
    "idx": 139,
    "name": "군선도 병풍",
    "region": "서울",
    "address": "서울특별시 용산구 서빙고로 137, 국립중앙박물관",
    "latitude": 37.524,
    "longitude": 126.98,
    "desc": "조선 후기의 화가 단원 김홍도(1745~?)가 그린 8폭 병풍입니다. 신선들의 모습을 활달하고 힘찬 필치로 그려냈습니다. 인물들의 다양한 표정과 생동감 넘치는 자세, 유려한 옷주름 표현이 돋보이는 김홍도의 대표작 중 하나입니다. 국립중앙박물관 소장."
  },
  {
    "idx": 140,
    "name": "나전 화문 동경",
    "region": "서울",
    "address": "서울특별시 용산구 서빙고로 137, 국립중앙박물관",
    "latitude": 37.524,
    "longitude": 126.98,
    "desc": "고려시대에 만들어진 청동 거울로, 뒷면을 자개로 장식했습니다. 전복이나 조개 껍데기를 얇게 갈아 꽃무늬를 만들어 붙이고, 그 위에 옻칠을 했습니다. 현존하는 고려 나전칠기 중 가장 뛰어난 작품으로 평가받습니다. 국립중앙박물관 소장."
  },
  {
    "idx": 141,
    "name": "다뉴세문경",
    "region": "충남",
    "address": "충청남도 논산시 연산면 고정길 100, 숭실대학교 박물관",
    "latitude": 36.2625,
    "longitude": 127.1517,
    "desc": "초기 철기시대에 만들어진 청동 거울입니다. 뒷면에 1만 3천여 개의 아주 가는 선으로 기하학적인 무늬를 정교하게 새겼습니다. 당시 청동 주조 기술의 정점을 보여주는 유물로, 세계적으로도 유례를 찾기 힘든 명품입니다. 숭실대학교박물관 소장."
  },
  {
    "idx": 142,
    "name": "동국정운 전체",
    "region": "서울",
    "address": "서울특별시 동대문구 경희대로 26, 건국대학교 박물관",
    "latitude": 37.5962,
    "longitude": 127.0518,
    "desc": "조선 세종 때 편찬된 우리나라 최초의 표준음에 관한 운서(韻書)입니다. 총 6권 6책으로 구성된 완질본으로, 당시의 한자음을 정리하고 통일하기 위해 만들어졌습니다. 국어사 및 음운학 연구에 매우 중요한 자료입니다. 건국대학교박물관 소장."
  },
  {
    "idx": 143,
    "name": "화순 대곡리 출토 청동유물",
    "region": "광주",
    "address": "광주광역시 북구 하서로 110, 국립광주박물관",
    "latitude": 35.1873,
    "longitude": 126.892,
    "desc": "전남 화순 대곡리에서 출토된 초기 철기시대의 청동 유물 일괄입니다. 한국식 동검(세형동검)을 비롯하여 청동 방울, 거울 등 8점으로 구성되어 있습니다. 기원전 2~1세기경 제사장의 무덤에 묻혔던 것으로 보이며, 당시의 신앙과 사회상을 보여줍니다. 국립광주박물관 소장."
  },
  {
    "idx": 144,
    "name": "월출산 마애여래좌상",
    "region": "전남",
    "address": "전라남도 영암군 영암읍 회문리 산 26-4",
    "latitude": 34.767,
    "longitude": 126.7115,
    "desc": "월출산 구정봉 아래 거대한 바위에 새겨진 고려 초기의 마애불입니다. 높이가 8.6m에 이르는 거대한 불상으로, 당당하고 힘찬 모습이 특징입니다. 통일신라 양식을 계승하면서도 고려적인 특징을 보여주는 마애불의 수작입니다."
  },
  {
    "idx": 145,
    "name": "귀면 청동로",
    "region": "서울",
    "address": "서울특별시 용산구 서빙고로 137, 국립중앙박물관",
    "latitude": 37.524,
    "longitude": 126.98,
    "desc": "고려시대에 만들어진 도깨비 얼굴 모양의 청동 향로입니다. 향로 다리 부분에 도깨비 얼굴(귀면)을 정교하고 힘 있게 조각했습니다. 고려시대 청동 공예의 뛰어난 주조 기술과 독창적인 조형 감각을 보여주는 작품입니다. 국립중앙박물관 소장."
  },
  {
    "idx": 146,
    "name": "전 논산 출토 청동방울",
    "region": "서울",
    "address": "서울특별시 강남구 도산대로37길 36, 호림박물관",
    "latitude": 37.5222,
    "longitude": 127.032,
    "desc": "충남 논산에서 출토된 것으로 전해지는 초기 철기시대의 청동 방울입니다. 팔각형 별 모양의 방울 여덟 개를 연결한 독특한 형태로, 제사장이 의식에 사용하던 도구로 추정됩니다. 정교한 주조 기술과 뛰어난 조형미를 보여줍니다. 호림박물관 소장."
  },
  {
    "idx": 147,
    "name": "울주 천전리 각석",
    "region": "울산",
    "address": "울산광역시 울주군 두동면 천전리 산 210-2",
    "latitude": 35.6143,
    "longitude": 129.1772,
    "desc": "선사시대부터 신라시대까지 여러 시대에 걸쳐 새겨진 바위그림입니다. 기하학적인 무늬와 동물 그림 등 선사시대 암각화와, 신라 화랑의 이름과 글귀가 새겨진 명문이 함께 있어 역사적, 학술적 가치가 매우 높습니다."
  },
  {
    "idx": 148,
    "name": "십칠사찬고금통요 권16",
    "region": "서울",
    "address": "서울특별시 관악구 관악로 1, 서울대학교 규장각한국학연구원",
    "latitude": 37.4593,
    "longitude": 126.952,
    "desc": "고려시대에 중국의 역사책인 '자치통감'을 참고하여 만든 역사책입니다. 1377년 청주 흥덕사에서 세계 최초의 금속활자로 인쇄한 '직지심체요절'보다 앞서, 12세기경에 주조된 금속활자로 인쇄된 것으로 추정되어 학계의 주목을 받고 있습니다. 서울대학교 규장각 소장."
  },
  {
    "idx": 149,
    "name": "동래선생교정북사상절 권4, 5",
    "region": "서울",
    "address": "서울특별시 성북구 성북로 102-11, 간송미술관",
    "latitude": 37.5929,
    "longitude": 127.009,
    "desc": "고려시대에 중국 남송의 학자 여조겸이 편찬한 역사책을 교정하여 간행한 책입니다. 고려 고종 21년(1234) 이전에 만들어진 금속활자로 인쇄한 것으로, 현존하는 가장 오래된 금속활자본 중 하나로 평가받습니다. 간송미술관 소장."
  },
  {
    "idx": 150,
    "name": "송조표전총류 권6~11",
    "region": "서울",
    "address": "서울특별시 관악구 관악로 1, 서울대학교 규장각한국학연구원",
    "latitude": 37.4593,
    "longitude": 126.952,
    "desc": "중국 송나라의 이름난 문장들을 모아 엮은 책으로, 고려시대에 금속활자로 인쇄되었습니다. 정확한 인쇄 시기는 알 수 없으나, 12~13세기의 인쇄물로 추정됩니다. 고려시대의 뛰어난 금속활자 인쇄술을 보여주는 귀중한 자료입니다. 서울대학교 규장각 소장."
  },
  {
    "idx": 151,
    "name": "조선왕조실록",
    "region": "서울/부산",
    "address": "서울특별시 관악구 관악로 1, 서울대학교 규장각한국학연구원 / 부산광역시 연제구 경기장로 28, 국가기록원 역사기록관",
    "latitude": 37.4593,
    "longitude": 126.952,
    "desc": "조선 태조부터 철종까지 25대 472년간의 역사를 연대순으로 기록한 책입니다. 총 1,893권 888책에 달하는 방대한 기록물로, 정치, 외교, 사회, 문화 등 모든 분야를 망라하고 있습니다. 유네스코 세계기록유산으로 등재된 세계적으로 유례없는 역사 기록물입니다."
  },
  {
    "idx": 152,
    "name": "비변사등록",
    "region": "서울",
    "address": "서울특별시 관악구 관악로 1, 서울대학교 규장각한국학연구원",
    "latitude": 37.4593,
    "longitude": 126.952,
    "desc": "조선 중기 이후 국정 최고 합의 기구였던 비변사(備邊司)의 활동을 기록한 일지입니다. 1617년부터 1892년까지 276년간의 기록으로, 조선 후기의 정치, 군사, 외교, 사회, 경제 등 모든 분야의 정책 결정 과정을 상세히 알 수 있는 핵심 사료입니다."
  },
  {
    "idx": 153,
    "name": "일성록",
    "region": "서울",
    "address": "서울특별시 관악구 관악로 1, 서울대학교 규장각한국학연구원",
    "latitude": 37.4593,
    "longitude": 126.952,
    "desc": "조선 후기 정조가 세손 시절부터 쓰기 시작하여 역대 왕들이 이어 쓴 국정 일기입니다. 1760년부터 1910년까지 151년간의 기록으로, 왕의 입장에서 국정 운영의 전반을 기록하여 조선왕조실록을 보완하는 중요한 사료입니다. 유네스코 세계기록유산으로 등재되었습니다."
  },
  {
    "idx": 154,
    "name": "무령왕 금제관식",
    "region": "충남",
    "address": "충청남도 공주시 관광단지길 34, 국립공주박물관",
    "latitude": 36.4673,
    "longitude": 127.1121,
    "desc": "백제 무령왕릉에서 출토된 왕의 금관 장식 한 쌍입니다. 얇은 금판에 불꽃무늬를 오려내고 수많은 작은 원형 장식을 달아 화려하게 만들었습니다. 백제의 독창적이고 세련된 금속공예 기술을 보여주는 대표적인 유물입니다. 국립공주박물관 소장."
  },
  {
    "idx": 155,
    "name": "무령왕비 금제관식",
    "region": "충남",
    "address": "충청남도 공주시 관광단지길 34, 국립공주박물관",
    "latitude": 36.4673,
    "longitude": 127.1121,
    "desc": "백제 무령왕릉에서 출토된 왕비의 금관 장식입니다. 왕의 것과 기본 형태는 비슷하나 좌우 대칭의 부드러운 불꽃무늬로 만들어져 우아함을 더했습니다. 왕의 관식과 함께 백제 예술의 정수를 보여줍니다. 국립공주박물관 소장."
  },
  {
    "idx": 156,
    "name": "무령왕 금귀걸이",
    "region": "충남",
    "address": "충청남도 공주시 관광단지길 34, 국립공주박물관",
    "latitude": 36.4673,
    "longitude": 127.1121,
    "desc": "백제 무령왕릉에서 발견된 왕의 금귀걸이 한 쌍입니다. 굵은 고리 아래에 두 줄의 장식을 길게 늘어뜨리고 나뭇잎과 하트 모양 장식을 매달아 화려하게 만들었습니다. 백제 금속공예의 정교함과 세련미를 보여주는 걸작입니다. 국립공주박물관 소장."
  },
  {
    "idx": 157,
    "name": "무령왕비 금귀걸이",
    "region": "충남",
    "address": "충청남도 공주시 관광단지길 34, 국립공주박물관",
    "latitude": 36.4673,
    "longitude": 127.1121,
    "desc": "백제 무령왕릉에서 발견된 왕비의 금귀걸이 한 쌍입니다. 굵은 고리에 작은 고리들을 연결하고 화려한 장식을 매달았습니다. 특히 육각형의 금 구슬을 여러 개 붙여 만든 장식이 매우 정교하고 아름답습니다. 국립공주박물관 소장."
  },
  {
    "idx": 158,
    "name": "무령왕 금제 뒤꽂이",
    "region": "충남",
    "address": "충청남도 공주시 관광단지길 34, 국립공주박물관",
    "latitude": 36.4673,
    "longitude": 127.1121,
    "desc": "백제 무령왕릉의 왕 머리 쪽에서 발견된 금으로 만든 머리 장식입니다. 마치 날개를 활짝 편 새의 모습을 연상시키는 독특하고 아름다운 형태로, 백제인의 뛰어난 조형 감각을 엿볼 수 있습니다. 국립공주박물관 소장."
  },
  {
    "idx": 159,
    "name": "무령왕비 금제 목걸이",
    "region": "서울",
    "address": "서울특별시 용산구 서빙고로 137, 국립중앙박물관",
    "latitude": 37.524,
    "longitude": 126.98,
    "desc": "백제 무령왕릉에서 출토된 왕비의 금 목걸이입니다. 9개의 속이 빈 금 구슬을 7개씩 연결하여 만들었으며, 끝에는 푸른색 곱은옥(곡옥)을 매달아 장식했습니다. 단순하면서도 세련된 아름다움이 돋보이는 작품입니다. 국립중앙박물관 소장."
  },
  {
    "idx": 160,
    "name": "무령왕 은제 팔찌",
    "region": "충남",
    "address": "충청남도 공주시 관광단지길 34, 국립공주박물관",
    "latitude": 36.4673,
    "longitude": 127.1121,
    "desc": "백제 무령왕릉의 왕비 팔에서 발견된 은 팔찌 한 쌍입니다. 바깥 면에 한 쌍의 용이 정교하게 새겨져 있으며, 안쪽에는 '다리작(多利作)'이라는 제작자와 팔찌의 무게 등이 기록되어 있어 역사적 가치가 매우 높습니다. 국립공주박물관 소장."
  },
  {
    "idx": 161,
    "name": "무령왕릉 청동거울 일괄",
    "region": "충남",
    "address": "충청남도 공주시 관광단지길 34, 국립공주박물관",
    "latitude": 36.4673,
    "longitude": 127.1121,
    "desc": "백제 무령왕릉에서 출토된 3점의 청동 거울입니다. 의자손수대경, 수문경 등 중국에서 만들어진 거울들로, 당시 백제와 중국의 활발한 교류 관계를 보여주는 중요한 자료입니다. 국립공주박물관 소장."
  },
  {
    "idx": 162,
    "name": "무령왕릉 석수",
    "region": "충남",
    "address": "충청남도 공주시 관광단지길 34, 국립공주박물관",
    "latitude": 36.4673,
    "longitude": 127.1121,
    "desc": "백제 무령왕릉 입구에서 발견된 돌로 만든 짐승상입니다. 무덤을 지키는 상징적인 동물로, 입을 벌리고 혀를 내민 익살스러운 표정이 특징입니다. 우리나라 고분에서 발견된 최초의 석수(石獸)로, 그 의미가 매우 큽니다. 국립공주박물관 소장."
  },
  {
    "idx": 163,
    "name": "무령왕릉 지석",
    "region": "충남",
    "address": "충청남도 공주시 관광단지길 34, 국립공주박물관",
    "latitude": 36.4673,
    "longitude": 127.1121,
    "desc": "무령왕릉 입구에서 발견된 2장의 돌판으로, 무덤의 주인이 누구인지를 알려주는 기록입니다. 왕과 왕비가 사망한 해, 장례를 치른 해 등이 기록되어 있어 무령왕릉이 도굴되지 않은 채 발견될 수 있었던 결정적인 단서가 되었습니다. 국립공주박물관 소장."
  },
  {
    "idx": 164,
    "name": "무령왕비 베개",
    "region": "충남",
    "address": "충청남도 공주시 관광단지길 34, 국립공주박물관",
    "latitude": 36.4673,
    "longitude": 127.1121,
    "desc": "백제 무령왕릉의 왕비 머리 쪽에서 발견된 나무 베개입니다. 표면에 붉은 옻칠을 하고 금박으로 거북등무늬, 연꽃무늬, 봉황무늬 등을 화려하게 장식했습니다. 당시 백제 공예의 높은 수준과 화려한 문화를 보여줍니다. 국립공주박물관 소장."
  },
  {
    "idx": 165,
    "name": "무령왕 발받침",
    "region": "충남",
    "address": "충청남도 공주시 관광단지길 34, 국립공주박물관",
    "latitude": 36.4673,
    "longitude": 127.1121,
    "desc": "백제 무령왕릉의 왕 발 쪽에서 발견된 나무 발받침입니다. 베개와 마찬가지로 붉은 옻칠을 하고 금박으로 화려한 무늬를 장식하여 왕의 권위를 상징했습니다. 베개와 함께 완전한 형태로 발견되어 가치가 높습니다. 국립공주박물관 소장."
  },
  {
    "idx": 166,
    "name": "백자 철화매조죽문 항아리",
    "region": "서울",
    "address": "서울특별시 용산구 이태원로55길 60-16, 삼성미술관 리움",
    "latitude": 37.538,
    "longitude": 126.9922,
    "desc": "조선 17세기에 만들어진 백자 항아리입니다. 둥글고 힘 있는 형태에 철 안료를 사용하여 한쪽에는 매화와 새, 다른 쪽에는 대나무를 자유롭고 생동감 넘치는 필치로 그렸습니다. 조선 중기 백자의 소박하고 건강한 아름다움을 대표하는 명품입니다. 삼성미술관 리움 소장."
  },
  {
    "idx": 167,
    "name": "청자 인물형 주전자",
    "region": "서울",
    "address": "서울특별시 용산구 서빙고로 137, 국립중앙박물관",
    "latitude": 37.524,
    "longitude": 126.98,
    "desc": "고려 12세기에 만들어진 인물 모양의 청자 주전자입니다. 도교의 신선이 복숭아를 들고 있는 모습을 형상화한 것으로, 머리에 쓴 관이 주전자 뚜껑 역할을 하는 독창적인 구조입니다. 고려청자의 뛰어난 조형성과 해학을 엿볼 수 있습니다. 국립중앙박물관 소장."
  },
  {
    "idx": 168,
    "name": "백자 동화매국문 병",
    "region": "서울",
    "address": "서울특별시 동대문구 회기로 61, 동국대학교 박물관",
    "latitude": 37.5755,
    "longitude": 127.0016,
    "desc": "조선 18세기에 만들어진 백자 병입니다. 맑고 깨끗한 백자 표면에 산화동 안료(진사)를 사용하여 붉은색으로 매화와 국화무늬를 그렸습니다. 진사의 붉은색이 선명하고 아름다워 조선 후기 백자 연구에 귀중한 자료입니다. 동국대학교박물관 소장."
  },
  {
    "idx": 169,
    "name": "청자 양각죽절문 병",
    "region": "서울",
    "address": "서울특별시 용산구 이태원로55길 60-16, 삼성미술관 리움",
    "latitude": 37.538,
    "longitude": 126.9922,
    "desc": "고려 12세기에 만들어진 청자 병입니다. 병의 몸체를 대나무 줄기 모양으로 만들고, 양각 기법으로 대나무 마디와 잎을 섬세하게 표현했습니다. 자연물을 본뜬 독창적인 형태와 맑고 깊은 비색 유약이 어우러진 명품입니다. 삼성미술관 리움 소장."
  },
  {
    "idx": 170,
    "name": "백자 철화 포도원숭이문 항아리",
    "region": "서울",
    "address": "서울특별시 서대문구 이화여대길 52, 이화여자대학교박물관",
    "latitude": 37.5619,
    "longitude": 126.946,
    "desc": "조선 18세기에 만들어진 백자 항아리입니다. 둥근 항아리에 철 안료를 사용하여 포도 넝쿨 아래에서 원숭이가 포도를 따려는 모습을 해학적으로 그렸습니다. 조선 후기 백자의 또 다른 매력을 보여주는 작품입니다. 이화여자대학교박물관 소장."
  },
  {
    "idx": 171,
    "name": "청동 은입사 봉황문 합",
    "region": "서울",
    "address": "서울특별시 강남구 도산대로37길 36, 호림박물관",
    "latitude": 37.5222,
    "longitude": 127.032,
    "desc": "고려시대에 만들어진 청동 합(그릇)입니다. 표면에 은실을 박아 넣어 봉황과 덩굴무늬를 매우 정교하고 화려하게 장식했습니다. 고려시대 금속공예의 뛰어난 은입사 기법과 세련된 문양을 보여주는 수작입니다. 호림박물관 소장."
  },
  {
    "idx": 172,
    "name": "진양군 영인 <x_bin_730>정공신녹권",
    "region": "경북",
    "address": "경상북도 예천군 호명면 양지1길 10",
    "latitude": 36.634,
    "longitude": 128.5147,
    "desc": "고려 공민왕 12년(1363)에 흥왕사의 변을 평정한 공으로 진양군 하을지가 받은 공신녹권입니다. 현존하는 가장 오래된 공신녹권으로, 고려 후기의 정치사와 서지학 연구에 매우 중요한 사료입니다."
  },
  {
    "idx": 173,
    "name": "청자 퇴화점문 나한좌상",
    "region": "서울",
    "address": "서울특별시 강남구 도산대로37길 36, 호림박물관",
    "latitude": 37.5222,
    "longitude": 127.032,
    "desc": "고려 13세기에 만들어진 청자 나한상입니다. 의자에 앉아 깊은 생각에 잠긴 나한의 모습을 표현했으며, 옷에는 퇴화(退化) 기법으로 흰 점을 찍어 장식했습니다. 인물상과 청자의 결합이라는 점에서 매우 희귀하고 귀중한 작품입니다. 호림박물관 소장."
  },
  {
    "idx": 174,
    "name": "세조 사자(賜子) 현록",
    "region": "서울",
    "address": "서울특별시 강남구 도산대로37길 36, 호림박물관",
    "latitude": 37.5222,
    "longitude": 127.032,
    "desc": "조선 세조 3년(1457)에 신숙주의 동생인 신면에게 내린 금속활자본 책입니다. 세조가 직접 서문을 썼으며, 중국의 고사를 그림과 함께 실어 교훈을 전달하고 있습니다. 조선 초기 금속활자 인쇄술 연구에 중요한 자료입니다. 호림박물관 소장."
  },
  {
    "idx": 175,
    "name": "백자 상감연화당초문 대접",
    "region": "서울",
    "address": "서울특별시 용산구 이태원로55길 60-16, 삼성미술관 리움",
    "latitude": 37.538,
    "longitude": 126.9922,
    "desc": "고려 말~조선 초에 만들어진 상감 기법의 백자 대접입니다. 백토(白土) 그릇에 검은 흙으로 연꽃과 덩굴무늬를 새겨 넣었습니다. 고려청자의 상감 기법을 계승하여 조선백자로 넘어가는 과도기적 특징을 보여주는 희귀한 작품입니다. 삼성미술관 리움 소장."
  },
  {
    "idx": 176,
    "name": "백자 청화홍치명송죽문 항아리",
    "region": "서울",
    "address": "서울특별시 동대문구 회기로 61, 동국대학교 박물관",
    "latitude": 37.5755,
    "longitude": 127.0016,
    "desc": "조선 15세기에 만들어진 청화백자 항아리입니다. 굽 안쪽에 '홍치(弘治)'라는 명나라 연호가 새겨져 있어 제작 시기를 명확히 알 수 있습니다. 소나무와 대나무 무늬를 힘 있는 필치로 그려 넣어 조선 초기 청화백자의 특징을 잘 보여줍니다. 동국대학교박물관 소장."
  },
  {
    "idx": 177,
    "name": "분청사기 조화어문 편병",
    "region": "서울",
    "address": "서울특별시 용산구 서빙고로 137, 국립중앙박물관",
    "latitude": 37.524,
    "longitude": 126.98,
    "desc": "조선 15세기에 만들어진 분청사기 편병(납작한 병)입니다. 표면을 흰 흙으로 덮고 무늬를 그린 뒤 배경을 긁어내는 조화(彫花) 기법으로 물고기 두 마리를 생동감 있게 표현했습니다. 분청사기의 자유롭고 대담한 멋을 보여주는 대표작입니다. 국립중앙박물관 소장."
  },
  {
    "idx": 178,
    "name": "분청사기 음각어문 편병",
    "region": "서울",
    "address": "서울특별시 강남구 도산대로37길 36, 호림박물관",
    "latitude": 37.5222,
    "longitude": 127.032,
    "desc": "조선 15세기에 만들어진 분청사기 편병입니다. 표면에 선으로 무늬를 새기는 음각 기법으로 물고기와 모란, 연꽃무늬를 가득 채웠습니다. 정교하면서도 해학적인 표현이 돋보이는 분청사기의 수작입니다. 호림박물관 소장."
  },
  {
    "idx": 179,
    "name": "분청사기 박지연화어문 편병",
    "region": "서울",
    "address": "서울특별시 강남구 도산대로37길 36, 호림박물관",
    "latitude": 37.5222,
    "longitude": 127.032,
    "desc": "조선 15세기에 만들어진 분청사기 편병입니다. 무늬를 남기고 배경을 긁어내는 박지(剝地) 기법을 사용하여 연꽃과 물고기 무늬를 표현했습니다. 흑백의 강렬한 대비와 대담한 구성이 특징인 작품입니다. 호림박물관 소장."
  },
  {
    "idx": 180,
    "name": "김정희 필 세한도",
    "region": "서울",
    "address": "서울특별시 용산구 서빙고로 137, 국립중앙박물관",
    "latitude": 37.524,
    "longitude": 126.98,
    "desc": "조선 후기의 서화가 추사 김정희(1786~1856)가 제주도 유배 시절에 그린 그림입니다. 추운 겨울에도 푸르름을 잃지 않는 소나무와 잣나무를 통해 제자에 대한 고마움과 자신의 지조를 표현했습니다. 조선 문인화의 정수로 꼽히는 최고의 걸작입니다. 국립중앙박물관 소장."
  },
  {
    "idx": 181,
    "name": "장흥 천관사 삼층석탑",
    "region": "전남",
    "address": "전라남도 장흥군 관산읍 농안리 738-4",
    "latitude": 34.5677,
    "longitude": 126.9248,
    "desc": "통일신라 시대의 3층 석탑입니다. 현재는 3층 중 2층까지만 남아있지만, 각 부의 조각 수법이 매우 뛰어나고 세련되었습니다. 기단에 새겨진 팔부중상과 탑신 1층의 문 양옆을 지키는 인왕상 조각이 특히 아름답습니다."
  },
  {
    "idx": 182,
    "name": "구미 선산읍 금동관음보살입상",
    "region": "대구",
    "address": "대구광역시 수성구 청호로 321, 국립대구박물관",
    "latitude": 35.8457,
    "longitude": 128.633,
    "desc": "삼국시대 7세기 전반에 만들어진 금동 관음보살상입니다. 머리에 쓴 화려한 보관과 온화한 미소, 유려한 옷주름 표현이 특징입니다. 중국 수나라 불상 양식의 영향을 받았으면서도 백제적인 부드러움을 간직한 작품입니다. 국립대구박물관 소장."
  },
  {
    "idx": 183,
    "name": "양양 선림원지 금동관음보살입상",
    "region": "강원",
    "address": "강원특별자치도 춘천시 우석로 70, 국립춘천박물관",
    "latitude": 37.8727,
    "longitude": 127.737,
    "desc": "통일신라 시대인 9세기경에 만들어진 금동 관음보살상입니다. 화려하고 복잡한 장신구와 사실적인 신체 표현이 특징으로, 통일신라 하대 불상 양식의 변화를 잘 보여주는 중요한 작품입니다. 국립춘천박물관 소장."
  },
  {
    "idx": 184,
    "name": "공주 의당 금동보살입상",
    "region": "충남",
    "address": "충청남도 공주시 관광단지길 34, 국립공주박물관",
    "latitude": 36.4673,
    "longitude": 127.1121,
    "desc": "삼국시대 7세기 전반에 만들어진 금동 보살상입니다. 천진난만한 표정과 단순하면서도 균형 잡힌 신체 표현이 특징입니다. 백제 불상으로 추정되며, 소박하고 순수한 아름다움을 보여주는 작품입니다. 국립공주박물관 소장."
  },
  {
    "idx": 185,
    "name": "상지은니묘법연화경",
    "region": "서울",
    "address": "서울특별시 용산구 이태원로55길 60-16, 삼성미술관 리움",
    "latitude": 37.538,
    "longitude": 126.9922,
    "desc": "고려 충숙왕 2년(1315)에 감색 종이에 금·은가루로 글씨를 쓰고 그림을 그린 사경(寫經)입니다. 정교하고 아름다운 글씨와 화려한 변상도(불경의 내용을 그린 그림)가 어우러져, 고려시대 사경 예술의 높은 수준을 보여주는 명품입니다. 삼성미술관 리움 소장."
  },
  {
    "idx": 186,
    "name": "양산 신기리 금동삼존불입상",
    "region": "부산",
    "address": "부산광역시 남구 유엔평화로 63, 부산박물관",
    "latitude": 35.1328,
    "longitude": 129.091,
    "desc": "삼국시대 7세기경에 제작된 금동 삼존불상입니다. 하나의 광배에 본존불과 두 협시보살을 함께 배치했으며, 아기처럼 천진난만한 표정과 부드러운 조각 수법이 특징입니다. 신라 초기 불상의 독특한 양식을 보여줍니다. 부산박물관 소장."
  },
  {
    "idx": 187,
    "name": "봉화 북지리 마애여래좌상",
    "region": "경북",
    "address": "경상북도 봉화군 물야면 북지리 395",
    "latitude": 36.9366,
    "longitude": 128.6659,
    "desc": "통일신라 시대에 바위에 새긴 마애불입니다. 광배와 대좌(불상이 앉는 자리)까지 모두 갖춘 완전한 형태이며, 부드럽고 온화한 인상과 안정감 있는 자세가 특징입니다. 통일신라 전성기 불상 양식을 보여주는 수작입니다."
  },
  {
    "idx": 188,
    "name": "금관 및 수식",
    "region": "경북",
    "address": "경상북도 경주시 일정로 186, 국립경주박물관",
    "latitude": 35.8329,
    "longitude": 129.2274,
    "desc": "경주 천마총에서 출토된 금관과 부속 장신구입니다. 머리에 쓰는 관모(冠帽) 형태로, 금관과 함께 발견된 나비 모양, 새 모양 장식 등이 포함됩니다. 국보 제138호 금관과는 다른 형태를 보여주어 신라 관모 연구에 중요한 자료가 됩니다. 국립경주박물관 소장."
  },
  {
    "idx": 189,
    "name": "금제 관모",
    "region": "서울",
    "address": "서울특별시 용산구 서빙고로 137, 국립중앙박물관",
    "latitude": 37.524,
    "longitude": 126.98,
    "desc": "경주 교동에서 발견된 것으로 전해지는 신라의 금으로 만든 모자입니다. 여러 개의 금판을 연결하여 만들었으며, 표면에 새 날개 모양의 장식을 붙여 화려함을 더했습니다. 현존하는 유일한 신라 금제 관모로 매우 귀중한 유물입니다. 국립중앙박물관 소장."
  },
  {
    "idx": 190,
    "name": "금제 경갑 및 신발",
    "region": "서울",
    "address": "서울특별시 용산구 이태원로55길 60-16, 삼성미술관 리움",
    "latitude": 37.538,
    "longitude": 126.9922,
    "desc": "경주 황남대총 북분에서 출토된 것으로 추정되는 신라의 가슴가리개와 신발입니다. 얇은 금판에 거북등무늬 등 정교한 문양을 새기고, 달개(작은 원형 장식)를 달아 화려함을 더했습니다. 당시 지배층의 위세와 뛰어난 금속공예 기술을 보여줍니다. 삼성미술관 리움 소장."
  },
  {
    "idx": 191,
    "name": "황남대총 북분 금관",
    "region": "서울",
    "address": "서울특별시 용산구 서빙고로 137, 국립중앙박물관",
    "latitude": 37.524,
    "longitude": 126.98,
    "desc": "경주 황남대총 북분에서 출토된 신라 금관입니다. '出'자 모양의 나뭇가지 장식 3개와 사슴뿔 모양 장식 2개를 세우고, 굽은 옥과 달개를 매달았습니다. 금관총 금관과 함께 신라 금관을 대표하는 걸작입니다. 국립중앙박물관 소장."
  },
  {
    "idx": 192,
    "name": "황남대총 북분 금제 허리띠",
    "region": "서울",
    "address": "서울특별시 용산구 서빙고로 137, 국립중앙박물관",
    "latitude": 37.524,
    "longitude": 126.98,
    "desc": "경주 황남대총 북분에서 금관과 함께 출토된 신라의 금 허리띠입니다. 띠드리개(요패)가 손상되지 않고 완전한 형태로 발견되어, 물고기, 굽은 옥, 약통 등 다양한 장식물의 원래 위치를 정확히 알 수 있다는 점에서 가치가 매우 큽니다. 국립중앙박물관 소장."
  },
  {
    "idx": 193,
    "name": "경주 98호 남분 유리병 및 잔",
    "region": "경북",
    "address": "경상북도 경주시 일정로 186, 국립경주박물관",
    "latitude": 35.8329,
    "longitude": 129.2274,
    "desc": "경주 황남대총 남분에서 출토된 유리병과 유리잔입니다. 봉황의 머리를 닮은 독특한 형태의 유리병과 유리잔은 동로마 제국 등 서역에서 수입된 것으로, 당시 신라와 서역의 활발한 교류를 보여주는 중요한 유물입니다. 국립경주박물관 소장."
  },
  {
    "idx": 194,
    "name": "황남대총 남분 금목걸이",
    "region": "서울",
    "address": "서울특별시 용산구 서빙고로 137, 국립중앙박물관",
    "latitude": 37.524,
    "longitude": 126.98,
    "desc": "경주 황남대총 남분에서 출토된 신라의 금 목걸이입니다. 속이 빈 금 구슬을 여러 개 연결하고, 끝에 푸른색 굽은 옥을 매달았습니다. 신라 금 목걸이 중 가장 화려하고 무거우며, 뛰어난 제작 기술을 보여주는 작품입니다. 국립중앙박물관 소장."
  },
  {
    "idx": 195,
    "name": "토우장식 장경호",
    "region": "경북",
    "address": "경상북도 경주시 일정로 186, 국립경주박물관",
    "latitude": 35.8329,
    "longitude": 129.2274,
    "desc": "경주 미추왕릉 지구에서 출토된 신라의 목 긴 항아리입니다. 목과 어깨 부분에 사람, 동물 등 다양한 흙인형(토우)을 장식한 것이 특징입니다. 당시 신라인들의 생활상과 내세관을 생생하게 보여주는 매우 흥미로운 유물입니다. 국립경주박물관 소장."
  },
  {
    "idx": 196,
    "name": "신라백지묵서대방광불화엄경",
    "region": "서울",
    "address": "서울특별시 용산구 이태원로55길 60-16, 삼성미술관 리움",
    "latitude": 37.538,
    "longitude": 126.9922,
    "desc": "통일신라 시대인 755년에 흰 종이에 먹으로 쓴 화엄경입니다. 각 권의 끝에 제작 연대와 목적, 참여한 사람들의 이름이 정확히 기록되어 있어 신라 시대 불교 경전과 서예 연구에 매우 중요한 자료입니다. 삼성미술관 리움 소장."
  },
  {
    "idx": 197,
    "name": "청룡사 위봉루",
    "region": "충북",
    "address": "충청북도 청주시 서원구 현도면 청룡길 214",
    "latitude": 36.4828,
    "longitude": 127.4206,
    "desc": "청룡사에 있는 조선 후기의 누각 건물입니다. 정확한 창건 연대는 알 수 없으나, 보살사(菩薩寺)라는 절을 지을 때 남은 목재로 지었다는 기록이 남아 있습니다. 소박하면서도 단정한 구조와 주변 경관과의 조화가 뛰어난 조선 후기 누각 건축의 수작입니다."
  },
  {
    "idx": 198,
    "name": "단양 신라 적성비",
    "region": "충북",
    "address": "충청북도 단양군 단성면 하방리 산 3-1",
    "latitude": 36.9429,
    "longitude": 128.3242,
    "desc": "신라 진흥왕 때 세운 비석으로, 신라가 죽령을 넘어 단양 지역까지 영토를 확장한 것을 기념하여 세웠습니다. 신라의 영토 확장 과정을 알려주는 중요한 사료이며, 한강 유역의 북한산비보다 앞서 세워진 것으로 추정됩니다."
  },
  {
    "idx": 199,
    "name": "봉선홍경사 사적갈비",
    "region": "충남",
    "address": "충청남도 천안시 서북구 성환읍 대홍리 329-1",
    "latitude": 36.9389,
    "longitude": 127.124,
    "desc": "고려 현종 12년(1021)에 봉선홍경사라는 사찰을 세운 내력을 기록한 비석입니다. 비문을 지은 사람, 글씨를 쓴 사람, 비를 세운 날짜가 모두 기록되어 있으며, 힘 있고 세련된 글씨는 고려시대 비석 중 최고로 꼽힙니다."
  },
  {
    "idx": 200,
    "name": "금동보살입상",
    "region": "부산",
    "address": "부산광역시 남구 유엔평화로 63, 부산박물관",
    "latitude": 35.1328,
    "longitude": 129.091,
    "desc": "삼국시대 7세기 전반에 만들어진 금동 보살상입니다. 온화하고 자비로운 표정과 부드러운 신체 곡선, 유려한 옷주름 표현이 매우 뛰어납니다. 백제 불상 양식의 영향을 받은 신라 불상으로 추정되며, 삼국시대 보살상의 걸작 중 하나입니다. 부산박물관 소장."
  }
]
