[
  {
    "idx": 1,
    "name": "서울 숭례문",
    "region": "서울",
    "address": "서울 중구 세종대로 40",
    "latitude": 37.559722,
    "longitude": 126.975278,
    "desc": "조선시대 한양도성의 정문으로, 남쪽에 있다고 하여 남대문이라고도 불린다. 1398년에 처음 지었고, 1447년에 고쳐 지은 것이 지금의 모습으로 이어졌으나 2008년 화재로 크게 훼손되어 2013년에 복원되었다."
  },
  {
    "idx": 2,
    "name": "서울 원각사지 십층석탑",
    "region": "서울",
    "address": "서울 종로구 종로 99",
    "latitude": 37.571667,
    "longitude": 126.988333,
    "desc": "조선 세조 13년(1467)에 세워진 석탑이다. 대리석으로 만들어졌으며, 형태와 장식이 매우 화려하고 정교하여 조선시대 석탑의 백미로 꼽힌다."
  },
  {
    "idx": 3,
    "name": "서울 북한산 신라 진흥왕 순수비",
    "region": "서울",
    "address": "서울 용산구 서빙고로 137 국립중앙박물관",
    "latitude": 37.524167,
    "longitude": 126.980278,
    "desc": "신라 진흥왕이 영토를 확장하고, 그 지역을 순시한 것을 기념하여 세운 비석이다. 원래 북한산 비봉에 있었으나, 보존을 위해 국립중앙박물관으로 옮겨졌다."
  },
  {
    "idx": 4,
    "name": "여주 고달사지 승탑",
    "region": "경기",
    "address": "경기 여주시 북내면 상교리 411-1",
    "latitude": 37.393889,
    "longitude": 127.652222,
    "desc": "고려시대의 승려의 사리를 모신 탑으로, 전체적인 조형미와 조각 수법이 뛰어나 고려시대 승탑의 대표작으로 꼽힌다."
  },
  {
    "idx": 5,
    "name": "보은 법주사 쌍사자 석등",
    "region": "충북",
    "address": "충북 보은군 속리산면 법주사로 379",
    "latitude": 36.5425,
    "longitude": 127.833333,
    "desc": "통일신라시대의 석등으로, 두 마리의 사자가 서로 마주보며 앞발로 불을 밝히는 화사석을 받치고 있는 독특한 형태를 하고 있다. 신라 석등의 대표작 중 하나이다."
  },
  {
    "idx": 6,
    "name": "충주 탑평리 칠층석탑",
    "region": "충북",
    "address": "충북 충주시 중앙탑면 중앙탑길 225",
    "latitude": 37.015833,
    "longitude": 127.866667,
    "desc": "통일신라시대의 석탑으로, 높이가 14.5m에 달하는 거대한 탑이다. ‘중앙탑’이라고도 불리며, 우리나라 중앙에 위치한다는 상징적인 의미를 가지고 있다."
  },
  {
    "idx": 7,
    "name": "천안 봉선홍경사 갈기비",
    "region": "충남",
    "address": "충남 천안시 서북구 성환읍 대홍3길 77-48",
    "latitude": 36.943056,
    "longitude": 127.134722,
    "desc": "고려 현종 12년(1021)에 세워진 비석으로, 봉선홍경사의 창건 내력을 기록하고 있다. 비문은 최충이 짓고, 백현례가 썼다."
  },
  {
    "idx": 8,
    "name": "보령 성주사지 대낭혜화상탑비",
    "region": "충남",
    "address": "충남 보령시 성주면 성주리 78",
    "latitude": 36.344722,
    "longitude": 126.655556,
    "desc": "통일신라 말기의 승려인 낭혜화상의 행적을 기록한 탑비로, 최치원이 비문을 지었다. 통일신라시대 탑비의 대표적인 작품이다."
  },
  {
    "idx": 9,
    "name": "부여 정림사지 오층석탑",
    "region": "충남",
    "address": "충남 부여군 부여읍 동남리 254",
    "latitude": 36.279444,
    "longitude": 126.913333,
    "desc": "백제시대의 대표적인 석탑으로, 목탑의 구조를 석재로 충실하게 재현하였다. 세련되고 정제된 조형미를 보여주며, 익산 미륵사지 석탑과 함께 백제 석탑의 양식을 잘 보여준다."
  },
  {
    "idx": 10,
    "name": "남원 실상사 백장암 삼층석탑",
    "region": "전북",
    "address": "전북 남원시 산내면 대정리 975",
    "latitude": 35.443056,
    "longitude": 127.62,
    "desc": "통일신라시대의 석탑으로, 기단과 탑신에 화려하고 정교한 조각이 가득 새겨져 있다. 일반적인 석탑의 형식을 따르지 않은 독특한 작품이다."
  },
  {
    "idx": 11,
    "name": "익산 미륵사지 석탑",
    "region": "전북",
    "address": "전북특별자치도 익산시 금마면 기양리 97",
    "latitude": 36.0125,
    "longitude": 127.030278,
    "desc": "백제 무왕 40년(639년)에 건립된 한국에서 가장 오래되고 큰 석탑입니다. 목탑의 구조를 석재로 충실히 재현하여 목탑에서 석탑으로 넘어가는 과도기적 양식을 보여주는 중요한 문화재입니다. 원래 9층으로 추정되나 현재는 6층까지 복원되어 있습니다."
  },
  {
    "idx": 12,
    "name": "구례 화엄사 각황전 앞 석등",
    "region": "전남",
    "address": "전라남도 구례군 마산면 화엄사로 539, 화엄사",
    "latitude": 35.25694,
    "longitude": 127.49750,
    "desc": "통일신라시대(860~873년 추정)에 만들어진 높이 6.4m의 거대한 석등으로, 한국에 현존하는 석등 중 가장 큽니다. 8각의 화사석과 장고 모양의 간주석, 연꽃 조각 등이 특징이며 웅장한 각황전과 조화를 이룹니다."
  },
  {
    "idx": 13,
    "name": "강진 무위사 극락보전",
    "region": "전남",
    "address": "전라남도 강진군 성전면 무위사로 308, 무위사",
    "latitude": 34.738778,
    "longitude": 126.686778,
    "desc": "조선 성종 7년(1476년)에 지어진 것으로 추정되는 목조건물입니다. 주심포 양식으로 간결하면서도 균형 잡힌 구조미를 보여주며, 내부에는 아미타삼존불과 벽화(국보 제313호 등)가 봉안되어 있습니다."
  },
  {
    "idx": 14,
    "name": "영천 거조사 영산전",
    "region": "경북",
    "address": "경상북도 영천시 청통면 거조길 400-67, 거조사",
    "latitude": 36.020239,
    "longitude": 128.764497,
    "desc": "고려 우왕 원년(1375년)에 건립된 목조건물입니다. 소박하고 간결한 주심포 양식으로 지어졌으며, 내부에는 526구의 각기 다른 표정을 한 석조 나한상이 모셔져 있는 것으로 유명합니다."
  },
  {
    "idx": 15,
    "name": "안동 봉정사 극락전",
    "region": "경북",
    "address": "경상북도 안동시 서후면 봉정사길 222, 봉정사",
    "latitude": 36.633000,
    "longitude": 128.642000,
    "desc": "고려시대(1200년대 초 추정)에 지어진 목조건물로, 한국에 현존하는 가장 오래된 목조건물 중 하나로 알려져 있습니다. 주심포 양식의 맞배지붕 건물로, 통일신라 건축 양식을 계승한 모습을 보여줍니다."
  },
  {
    "idx": 16,
    "name": "안동 법흥사지 칠층전탑",
    "region": "경북",
    "address": "경상북도 안동시 법흥동 8-1",
    "latitude": 36.565972,
    "longitude": 128.746381,
    "desc": "통일신라시대에 조성된 것으로 추정되는 높이 17m의 칠층전탑입니다. 국내에 남아있는 전탑 중 가장 크고 오래된 것 중 하나로, 기단에는 8부중상과 사천왕상이 조각되어 있습니다."
  },
  {
    "idx": 17,
    "name": "영주 부석사 무량수전 앞 석등",
    "region": "경북",
    "address": "경상북도 영주시 부석면 부석사로 345, 부석사",
    "latitude": 36.99889,
    "longitude": 128.68750,
    "desc": "통일신라시대에 만들어진 높이 2.97m의 화강암 석등입니다. 8각을 기본 형태로 하며, 비례와 조각이 정교하여 신라 석등 중 최고의 걸작으로 꼽힙니다. 화사석 각 면에는 보살상이 조각되어 있습니다."
  },
  {
    "idx": 18,
    "name": "영주 부석사 무량수전",
    "region": "경북",
    "address": "경상북도 영주시 부석면 부석사로 345, 부석사",
    "latitude": 36.99889,
    "longitude": 128.68750,
    "desc": "고려시대(1376년 중수 기록)의 목조건물로, 한국에서 가장 오래된 목조건축물 중 하나입니다. 주심포 양식으로 지어졌으며, 배흘림기둥, 안쏠림 등 고려시대 건축의 특징을 잘 보여주는 아름다운 건물입니다."
  },
  {
    "idx": 19,
    "name": "영주 부석사 조사당",
    "region": "경북",
    "address": "경상북도 영주시 부석면 부석사로 345, 부석사",
    "latitude": 36.99889,
    "longitude": 128.68750,
    "desc": "고려 우왕 3년(1377년)에 건립된 것으로 추정되는 목조건물입니다. 부석사를 창건한 의상대사의 초상을 모시고 있으며, 간결한 주심포 양식으로 고려시대 건축 연구에 중요한 자료입니다. 내부 벽화(국보 제46호)가 유명합니다."
  },
  {
    "idx": 20,
    "name": "경주 불국사 다보탑",
    "region": "경북",
    "address": "경상북도 경주시 불국로 385, 불국사",
    "latitude": 35.79000,
    "longitude": 129.33222,
    "desc": "통일신라 경덕왕 10년(751년)경에 건립된 높이 10.29m의 석탑입니다. 일반적인 석탑과 다른 독특하고 복잡한 구조를 화강암으로 아름답게 표현하였으며, 석가탑과 함께 불국사 대웅전 앞뜰에 서 있습니다. 한국 10원 동전의 도안으로도 유명합니다."
  },
  {
    "idx": 21,
    "name": "경주 불국사 삼층석탑",
    "region": "경북",
    "address": "경상북도 경주시 불국로 385, 불국사",
    "latitude": 35.79000,
    "longitude": 129.332222,
    "desc": "통일신라 경덕왕 10년(751년)경 건립된 높이 10.75m의 삼층석탑으로, '석가탑'이라고도 불립니다. 간결하고 균형 잡힌 아름다움을 지닌 신라 석탑의 전형으로, 다보탑과 함께 불국사를 대표하는 탑입니다. 1966년 해체 수리 중 세계 최고(最古)의 목판 인쇄물인 '무구정광대다라니경'(국보 제126호)이 발견되었습니다."
  },
  {
    "idx": 22,
    "name": "경주 불국사 연화교 및 칠보교",
    "region": "경북",
    "address": "경상북도 경주시 불국로 385, 불국사",
    "latitude": 35.790414,
    "longitude": 129.331725,
    "desc": "통일신라시대(751년경)에 만들어진 석조 계단 다리입니다. 불국사 극락전으로 향하는 안양문과 연결되며, 아래쪽 10단이 연화교, 위쪽 8단이 칠보교입니다. 연화교 계단에는 연꽃잎이 정교하게 조각되어 있습니다."
  },
  {
    "idx": 23,
    "name": "경주 불국사 청운교 및 백운교",
    "region": "경북",
    "address": "경상북도 경주시 불국로 385, 불국사",
    "latitude": 35.789761,
    "longitude": 129.331622,
    "desc": "통일신라시대(751년경)에 만들어진 석조 계단 다리입니다. 불국사 대웅전으로 향하는 자하문과 연결되며, 아래쪽 18단이 백운교, 위쪽 16단이 청운교입니다. 다리 아래는 무지개 모양의 홍예로 만들어져 한국 석교 및 성문 건축의 초기 형태를 보여줍니다."
  },
  {
    "idx": 24,
    "name": "경주 석굴암 석굴",
    "region": "경북",
    "address": "경상북도 경주시 불국로 873-243, 석굴암",
    "latitude": 35.794167,
    "longitude": 129.349444,
    "desc": "통일신라 경덕왕 10년(751년) 김대성에 의해 창건된 인공 석굴사원입니다. 화강암을 다듬어 조립한 돔형 구조로, 내부에는 본존불인 석가여래좌상을 중심으로 십대제자, 보살상, 천왕상 등이 정교하게 조각되어 있어 신라 불교미술의 정수를 보여줍니다. 유네스코 세계문화유산으로 지정되어 있습니다."
  },
  {
    "idx": 25,
    "name": "경주 성덕대왕신종",
    "region": "경북",
    "address": "경상북도 경주시 일정로 186, 국립경주박물관",
    "latitude": 35.829389,
    "longitude": 129.22675,
    "desc": "통일신라 혜공왕 7년(771년)에 완성된 높이 3.75m의 거대한 동종으로, '에밀레종'이라고도 불립니다. 한국에 현존하는 가장 큰 종 중 하나이며, 아름다운 비천상 조각과 1,000여 자의 명문, 그리고 신비로운 종소리로 유명합니다. 국립경주박물관에 소장되어 있습니다."
  },
  {
    "idx": 26,
    "name": "경주 불국사 금동비로자나불좌상",
    "region": "경북",
    "address": "경상북도 경주시 진현동 15, 불국사 비로전",
    "latitude": 35.790000,
    "longitude": 129.332222,
    "desc": "통일신라시대(8~9세기)에 제작된 높이 1.77m의 금동불상입니다. 불국사 비로전에 봉안되어 있으며, 지권인을 한 비로자나불을 형상화했습니다. 당당한 체구와 정교한 옷주름 표현 등 통일신라 불교조각의 높은 수준을 보여주는 걸작으로, 국보 제27호 아미타여래좌상, 국보 제28호 백률사 약사여래입상과 함께 신라 3대 금동불로 꼽힙니다."
  },
  {
    "idx": 27,
    "name": "경주 불국사 금동아미타여래좌상",
    "region": "경북",
    "address": "경상북도 경주시 진현동 15, 불국사 극락전",
    "latitude": 35.790000,
    "longitude": 129.332222,
    "desc": "통일신라시대(8~9세기)에 제작된 높이 1.66m의 금동불상입니다. 불국사 극락전에 봉안되어 있으며, 아미타불을 형상화했습니다. 근엄하면서도 자비로운 표정과 사실적인 옷주름 표현이 뛰어나며, 국보 제26호 비로자나불좌상, 국보 제28호 백률사 약사여래입상과 함께 신라 3대 금동불로 불립니다."
  },
  {
    "idx": 28,
    "name": "경주 백률사 금동약사여래입상",
    "region": "경북",
    "address": "경상북도 경주시 일정로 186, 국립경주박물관",
    "latitude": 35.829389,
    "longitude": 129.22675,
    "desc": "통일신라시대(8세기 말~9세기 초)에 제작된 높이 1.77m의 금동불상입니다. 원래 경주 백률사에 있었으나 현재 국립경주박물관에 소장되어 있습니다. 약사여래를 형상화한 입상으로, 신체의 비례와 조형기법이 우수하여 국보 제26호, 제27호 불상과 함께 신라 3대 금동불로 꼽힙니다."
  },
  {
    "idx": 29,
    "name": "성덕대왕신종",
    "region": "경북",
    "address": "경상북도 경주시 일정로 186, 국립경주박물관",
    "latitude": 35.829389,
    "longitude": 129.22675,
    "desc": "통일신라 혜공왕 7년(771년)에 완성된 높이 3.75m의 거대한 동종으로, '에밀레종' 또는 '봉덕사종'이라고도 불립니다. 한국에 현존하는 가장 큰 종 중 하나이며, 아름다운 비천상 조각과 1,000여 자의 명문, 그리고 신비로운 종소리로 유명합니다. 국립경주박물관에 소장되어 있습니다. (국보 제25호와 동일 유물, 명칭 혼용)"
  },
  {
    "idx": 30,
    "name": "경주 분황사 모전석탑",
    "region": "경북",
    "address": "경상북도 경주시 분황로 94-11, 분황사",
    "latitude": 35.840278,
    "longitude": 129.233611,
    "desc": "신라 선덕여왕 3년(634년)에 건립된 것으로 추정되는 모전석탑입니다. 돌을 벽돌 모양으로 다듬어 쌓았으며, 현재는 3층만 남아있으나 원래는 더 높은 층이었을 것으로 보입니다. 1층 감실 입구 양쪽에는 인왕상이 조각되어 있습니다. 현존하는 신라 석탑 중 가장 오래된 것입니다."
  },
  {
    "idx": 31,
    "name": "경주 첨성대",
    "region": "경북",
    "address": "경상북도 경주시 인왕동 839-1",
    "latitude": 35.834722,
    "longitude": 129.219167,
    "desc": "신라 선덕여왕(재위 632~647) 때 건립된 천문관측대로, 현존하는 동양 최고(最古)의 천문대입니다. 높이 약 9.4m의 원통형 석조 건축물로, 362개의 화강암을 사용하여 27단을 쌓았으며, 꼭대기에는 우물 정(井)자 모양의 정상부가 있습니다. 천체의 움직임을 관찰하여 국가의 길흉을 점치는 역할을 했습니다."
  },
  {
    "idx": 32,
    "name": "합천 해인사 대장경판",
    "region": "경남",
    "address": "경상남도 합천군 가야면 해인사길 122, 해인사",
    "latitude": 35.801667,
    "longitude": 128.098056,
    "desc": "고려 고종 때(1236~1251년) 몽골의 침입을 불력으로 물리치고자 판각한 목판 대장경으로, '팔만대장경'이라고도 불립니다. 총 81,258매에 달하며, 현존하는 대장경 중 가장 오래되고 내용이 완벽한 것으로 평가받습니다. 해인사 장경판전(국보 제52호)에 보관되어 있으며, 유네스코 세계기록유산입니다."
  },
  {
    "idx": 33,
    "name": "창녕 신라 진흥왕 척경비",
    "region": "경남",
    "address": "경상남도 창녕군 창녕읍 교상리 28-1",
    "latitude": 35.540778,
    "longitude": 128.502722,
    "desc": "신라 진흥왕 22년(561년)에 세워진 비석으로, 진흥왕이 가야 지역을 정복하고 영토를 확장한 것을 기념하여 세운 척경비(拓境碑)입니다. 진흥왕 순수비 중 하나로, 당시 신라의 영토 확장과 국가 체제 정비 과정을 보여주는 중요한 금석문 자료입니다."
  },
  {
    "idx": 34,
    "name": "창녕 술정리 동 삼층석탑",
    "region": "경남",
    "address": "경상남도 창녕군 창녕읍 시장2길 37",
    "latitude": 35.543056,
    "longitude": 128.500556,
    "desc": "통일신라시대에 만들어진 삼층석탑입니다. 이중 기단 위에 3층의 탑신을 올린 전형적인 신라 석탑 양식을 따르고 있으며, 비례가 아름답고 조각 수법이 정교하여 경주 불국사 삼층석탑(석가탑)에 비견될 만큼 우수한 작품으로 평가받습니다."
  },
  {
    "idx": 35,
    "name": "구례 화엄사 사사자 삼층석탑",
    "region": "전남",
    "address": "전라남도 구례군 마산면 화엄사로 539, 화엄사",
    "latitude": 35.256944,
    "longitude": 127.4975,
    "desc": "통일신라시대(8세기 중엽 추정)에 만들어진 높이 7.17m의 이형 석탑입니다. 상층기단 네 모서리에 암수 네 마리의 사자가 중앙의 스님상을 향해 에워싸고 탑신을 받치고 있는 독특한 구조입니다. 탑 앞 석등 안에는 차 공양을 하는 스님상이 조각되어 있습니다."
  },
  {
    "idx": 36,
    "name": "상원사 동종",
    "region": "강원",
    "address": "강원특별자치도 평창군 진부면 오대산로 1211-50, 상원사",
    "latitude": 37.786389,
    "longitude": 128.564167,
    "desc": "신라 성덕왕 24년(725년)에 주조된 동종으로, 현존하는 한국 종 가운데 가장 오래된 것입니다. 높이 1.7m. 아름다운 비천상과 당초문양, 그리고 맑고 깨끗한 소리로 유명합니다. 원래 안동 관아에 있었으나 조선 예종 원년(1469) 상원사로 옮겨졌습니다."
  },
  {
    "idx": 37,
    "name": "경주 황복사지 삼층석탑",
    "region": "경북",
    "address": "경상북도 경주시 구황동 103",
    "latitude": 35.841389,
    "longitude": 129.233056,
    "desc": "통일신라 효소왕 원년(692년)에 건립된 높이 7.3m의 삼층석탑입니다. 이중 기단 위에 3층의 탑신을 올린 전형적인 신라 석탑 양식을 보여줍니다. 1942년 해체 수리 중 금동사리함과 금제여래좌상(국보 제79호), 금제여래입상(국보 제80호) 등이 발견되었습니다."
  },
  {
    "idx": 38,
    "name": "경주 고선사지 삼층석탑",
    "region": "경북",
    "address": "경상북도 경주시 일정로 186, 국립경주박물관",
    "latitude": 35.829167,
    "longitude": 129.227778,
    "desc": "통일신라시대 전기(7세기 후반)에 세워진 삼층석탑입니다. 원래 원효대사가 주지로 있었던 고선사 터에 있었으나, 덕동댐 건설로 국립경주박물관으로 이전되었습니다. 감은사지 석탑과 함께 신라 석탑 양식의 초기 모습을 보여주는 중요한 탑입니다."
  },
  {
    "idx": 39,
    "name": "경주 나원리 오층석탑",
    "region": "경북",
    "address": "경상북도 경주시 현곡면 나원리 672",
    "latitude": 35.878611,
    "longitude": 129.175278,
    "desc": "통일신라시대(8세기경 추정)에 세워진 높이 9.7m의 오층석탑입니다. 이중 기단 위에 5층의 탑신을 올린 형태로, 경주 지역에 드문 오층석탑 중 하나입니다. 석재의 빛깔이 하얗고 아름다워 '나원백탑'으로도 불립니다."
  },
  {
    "idx": 40,
    "name": "경주 정혜사지 십삼층석탑",
    "region": "경북",
    "address": "경상북도 경주시 안강읍 옥산리 1654",
    "latitude": 36.019167,
    "longitude": 129.157778,
    "desc": "통일신라시대(9세기 추정)에 세워진 높이 5.9m의 십삼층석탑입니다. 흙으로 쌓은 1단 기단 위에 13층의 탑신을 올린 독특한 형태로, 1층 탑신이 매우 크고 2층부터 급격히 줄어드는 모습이 특징입니다. 한국 석탑 중 유례가 드문 다층탑입니다."
  },
  {
    "idx": 41,
    "name": "청주 용두사지 철당간",
    "region": "충북",
    "address": "충청북도 청주시 상당구 남문로2가 48-19",
    "latitude": 36.634722,
    "longitude": 127.488611,
    "desc": "고려 광종 13년(962년)에 만들어진 철제 당간입니다. 높이 약 13.1m로, 20개의 철통을 이어 만들었습니다. 원래 용두사에 있었으나 절은 없어지고 당간만 남아있으며, 당간지주 중 유일하게 국보로 지정된 문화재입니다."
  },
  {
    "idx": 42,
    "name": "칠곡 송림사 오층전탑",
    "region": "경북",
    "address": "경상북도 칠곡군 동명면 송림길 73, 송림사",
    "latitude": 35.981944,
    "longitude": 128.5775,
    "desc": "통일신라시대(9세기 추정)에 흙으로 구운 벽돌을 사용하여 쌓아 올린 오층전탑입니다. 화강암 기단 위에 5층의 탑신을 올렸으며, 금동제 상륜부를 갖추고 있습니다. 1959년 해체 수리 시 많은 유물(보물 제325호)이 발견되었습니다. (현재 보물 제189호)"
  },
  {
    "idx": 43,
    "name": "혜심고신제서",
    "region": "전남",
    "address": "전라남도 순천시 송광면 송광사안길 100, 송광사 성보박물관",
    "latitude": 35.001889,
    "longitude": 127.276444,
    "desc": "고려 고종 3년(1216)에 고종이 송광사의 승려 진각국사 혜심에게 대선사(大禪師)라는 호를 내린 문서(교지)입니다. 여러 색의 비단 7장을 이어 만든 두루마리에 쓰여 있으며, 고려시대 왕실 고문서로서 중요한 가치를 지닙니다."
  },
  {
    "idx": 44,
    "name": "장흥 보림사 남·북 삼층석탑 및 석등",
    "region": "전남",
    "address": "전라남도 장흥군 유치면 보림사로 224, 보림사",
    "latitude": 34.878056,
    "longitude": 126.876389,
    "desc": "통일신라시대(870년경)에 만들어진 두 기의 삼층석탑과 한 기의 석등입니다. 남탑과 북탑은 동일한 양식과 크기로, 이중 기단 위에 3층의 탑신을 올렸습니다. 석등 역시 같은 시기에 만들어진 것으로 추정되며, 세 유물 모두 보림사의 창건 시기를 알려주는 중요한 자료입니다."
  },
  {
    "idx": 45,
    "name": "영주 부석사 소조여래좌상",
    "region": "경북",
    "address": "경상북도 영주시 부석면 부석사로 345, 부석사 무량수전",
    "latitude": 36.99889,
    "longitude": 128.6875,
    "desc": "고려시대 초기에 만들어진 소조불상(흙으로 빚어 만든 불상)입니다. 부석사 무량수전(국보 제18호) 안에 모셔져 있으며, 높이 2.78m로 한국에서 가장 큰 소조불상 중 하나입니다. 통일신라 불상 양식을 계승하면서도 고려 특유의 조형미를 보여주는 걸작입니다."
  },
  {
    "idx": 46,
    "name": "영주 부석사 조사당 벽화",
    "region": "경북",
    "address": "경상북도 영주시 부석면 부석사로 345, 부석사 성보박물관",
    "latitude": 36.99889,
    "longitude": 128.6875,
    "desc": "고려 우왕 3년(1377년) 부석사 조사당(국보 제19호) 건립 시 그려진 것으로 추정되는 벽화입니다. 사천왕상과 제석천, 범천 등이 그려져 있으며, 현재 한국에 남아있는 가장 오래된 사찰 벽화 중 하나로 회화사적으로 매우 중요한 가치를 지닙니다. 현재는 성보박물관에 보관 중입니다."
  },
  {
    "idx": 47,
    "name": "하동 쌍계사 진감선사탑비",
    "region": "경남",
    "address": "경상남도 하동군 화개면 쌍계사길 59, 쌍계사",
    "latitude": 35.230278,
    "longitude": 127.658056,
    "desc": "통일신라 정강왕 2년(887년)에 세워진 탑비로, 쌍계사를 중창한 진감선사 혜소(774~850)의 행적을 기리고 있습니다. 최치원이 비문을 짓고 썼으며, 유려한 문장과 뛰어난 서체, 그리고 정교한 조각으로 신라 하대 금석문의 대표작으로 꼽힙니다."
  },
  {
    "idx": 48,
    "name": "평창 월정사 팔각 구층석탑",
    "region": "강원",
    "address": "강원특별자치도 평창군 진부면 오대산로 374-8, 월정사",
    "latitude": 37.731389,
    "longitude": 128.591944,
    "desc": "고려시대(10세기경)에 만들어진 높이 15.2m의 팔각 구층석탑입니다. 다각다층탑의 대표적인 예로, 화려하고 귀족적인 고려 불교문화의 특징을 잘 보여줍니다. 탑 앞에는 공양하는 모습의 석조보살좌상(국보)이 있습니다."
  },
  {
    "idx": 49,
    "name": "예산 수덕사 대웅전",
    "region": "충남",
    "address": "충청남도 예산군 덕산면 수덕사안길 79, 수덕사",
    "latitude": 36.663278,
    "longitude": 126.622667,
    "desc": "고려 충렬왕 34년(1308년)에 건립된 목조건물로, 한국에 현존하는 목조건물 중 건립 연대가 명확히 밝혀진 가장 오래된 건물 중 하나입니다. 맞배지붕에 주심포 양식으로 지어졌으며, 간결하면서도 힘찬 구조미가 돋보이는 고려시대 건축의 대표작입니다."
  },
  {
    "idx": 50,
    "name": "합천 영암사지 쌍사자 석등",
    "region": "경남",
    "address": "경상남도 합천군 가회면 황매산로 637-95, 영암사지",
    "latitude": 35.474167,
    "longitude": 128.002778,
    "desc": "통일신라 후기(9세기)에 만들어진 것으로 추정되는 석등입니다. 두 마리의 사자가 마주 서서 화사석을 받치고 있는 형태로, 보은 법주사 쌍사자 석등(국보 제5호)과 함께 쌍사자 석등의 대표적인 예입니다. (현재 보물 제353호)"
  },
  {
    "idx": 51,
    "name": "강릉 임영관 삼문",
    "region": "강원",
    "address": "강원특별자치도 강릉시 임영로131번길 6",
    "latitude": 37.753333,
    "longitude": 128.892222,
    "desc": "고려시대에 창건된 강릉 객사(임영관)의 정문입니다. 정확한 건립 연대는 알 수 없으나 고려 말에서 조선 초기의 건축 양식을 보여주며, 현존하는 가장 오래된 관아 정문 중 하나입니다. 맞배지붕에 주심포 양식으로 지어졌습니다."
  },
  {
    "idx": 52,
    "name": "합천 해인사 장경판전",
    "region": "경남",
    "address": "경상남도 합천군 가야면 해인사길 122, 해인사",
    "latitude": 35.801667,
    "longitude": 128.098056,
    "desc": "고려대장경판(팔만대장경, 국보 제32호)을 보관하기 위해 조선 초기(15세기)에 지어진 목조건물입니다. 자연 통풍과 습도 조절 기능이 뛰어나도록 과학적으로 설계되어, 700년이 넘는 세월 동안 대장경판을 온전히 보존해왔습니다. 유네스코 세계문화유산으로 지정되어 있습니다."
  },
  {
    "idx": 53,
    "name": "구례 연곡사 동 승탑",
    "region": "전남",
    "address": "전라남도 구례군 토지면 피아골로 806-16, 연곡사",
    "latitude": 35.254444,
    "longitude": 127.588056,
    "desc": "통일신라 후기에 만들어진 승탑으로, 도선국사의 승탑으로 전해집니다. 8각원당형의 전형적인 신라 승탑 양식을 따르면서도 조각이 매우 화려하고 정교하여 통일신라 후기 석조미술의 수작으로 평가받습니다."
  },
  {
    "idx": 54,
    "name": "구례 연곡사 북 승탑",
    "region": "전남",
    "address": "전라남도 구례군 토지면 피아골로 806-16, 연곡사",
    "latitude": 35.254444,
    "longitude": 127.588056,
    "desc": "고려 전기에 만들어진 승탑으로, 연곡사 동 승탑(국보 제53호)과 함께 연곡사에 있습니다. 8각원당형으로, 동 승탑에 비해 조각은 다소 간략화되었으나 안정된 비례와 세련된 조형미를 보여주는 고려 초기 승탑의 대표작입니다."
  },
  {
    "idx": 55,
    "name": "보은 법주사 팔상전",
    "region": "충북",
    "address": "충청북도 보은군 속리산면 법주사로 379, 법주사",
    "latitude": 36.541944,
    "longitude": 127.833056,
    "desc": "조선 인조 2년(1624년)에 재건된 5층 목탑입니다. 한국에 현존하는 유일한 고식 목탑으로, 내부가 하나로 트여 있으며 석가모니의 일생을 여덟 장면으로 나누어 그린 팔상도(捌相圖)를 봉안하고 있습니다. 높이 약 22.7m입니다."
  },
  {
    "idx": 56,
    "name": "순천 송광사 국사전",
    "region": "전남",
    "address": "전라남도 순천시 송광면 송광사안길 100, 송광사",
    "latitude": 35.001889,
    "longitude": 127.276444,
    "desc": "조선 초기(1400년대)에 지어진 것으로 추정되는 목조건물입니다. 송광사에서 배출된 16명의 국사(國師) 진영을 모시고 있으며, 간결하고 아담한 주심포 양식 건물로 조선 초기 건축 연구에 중요한 자료입니다."
  },
  {
    "idx": 57,
    "name": "화순 쌍봉사 철감선사탑",
    "region": "전남",
    "address": "전라남도 화순군 이양면 쌍산의로 459, 쌍봉사",
    "latitude": 34.887222,
    "longitude": 127.059167,
    "desc": "통일신라시대(868년경)에 만들어진 철감선사 도윤의 승탑입니다. 8각원당형으로, 각 부분의 조각이 매우 정교하고 아름다워 통일신라시대 승탑 중 최고의 걸작으로 꼽힙니다. 높이 2.3m입니다."
  },
  {
    "idx": 58,
    "name": "청양 장곡사 철조약사여래좌상 및 석조대좌",
    "region": "충남",
    "address": "충청남도 청양군 대치면 장곡리 14, 장곡사",
    "latitude": 36.4175,
    "longitude": 126.860278,
    "desc": "통일신라 말에서 고려 초(9세기 말~10세기 초)에 만들어진 철조 불상과 석조 대좌입니다. 약사여래를 형상화한 좌상으로, 단아한 철불 양식과 특이한 탑 모양의 대좌가 특징입니다. 당시 철불 제작 기술과 불교 미술 연구에 중요한 자료입니다."
  },
  {
    "idx": 59,
    "name": "원주 법천사지 지광국사탑비",
    "region": "강원",
    "address": "강원특별자치도 원주시 부론면 법천리 산70",
    "latitude": 37.206111,
    "longitude": 127.761667,
    "desc": "고려 선종 2년(1085년)에 세워진 지광국사 해린(984~1070)의 탑비입니다. 거북받침돌, 비신, 머릿돌로 구성되며, 비신 양옆의 용 조각과 머릿돌의 연꽃무늬 등 화려하고 정교한 조각이 특징입니다. 비문은 정유산이 짓고 안민후가 썼습니다."
  },
  {
    "idx": 60,
    "name": "청자 사자형뚜껑 향로",
    "region": "서울",
    "address": "서울특별시 용산구 서빙고로 137, 국립중앙박물관",
    "latitude": 37.523889,
    "longitude": 126.980278,
    "desc": "고려 12세기에 만들어진 청자 향로입니다. 몸체 위에 사자 모양의 뚜껑이 있으며, 사자의 입을 통해 향 연기가 나오도록 만들어졌습니다. 비취색 유약과 정교한 조형미가 돋보이는 고려청자의 대표작 중 하나입니다. 국립중앙박물관 소장."
  },
  {
    "idx": 61,
    "name": "청자 어룡형 주전자",
    "region": "서울",
    "address": "서울특별시 용산구 서빙고로 137, 국립중앙박물관",
    "latitude": 37.523889,
    "longitude": 126.980278,
    "desc": "고려 12세기에 만들어진 청자 주전자입니다. 물고기 몸에 용의 머리가 달린 상상의 동물인 어룡(魚龍) 모양으로, 연꽃 줄기를 꼬아 만든 손잡이와 연잎 모양 뚜껑이 특징입니다. 창의적인 조형미와 비색 유약이 아름다운 고려청자 명품입니다. 국립중앙박물관 소장."
  }
]
